[
  {
    "name": "s-Hertogenbosch",
    "country": "Netherlands",
    "iso2": "NL",
    "iso3": "NLD",
    "latitude": 51.6833,
    "longitude": 5.3167,
    "coordinates": "N 51 40 59, E 5 19 0",
    "population": 134520
  },
  {
    "name": "A Coruna",
    "country": "Spain",
    "iso2": "ES",
    "iso3": "ESP",
    "latitude": 43.3667,
    "longitude": -8.3833,
    "coordinates": "N 43 22 0, W 8 22 59",
    "population": 245468
  },
  {
    "name": "Aachen",
    "country": "Germany",
    "iso2": "DE",
    "iso3": "DEU",
    "latitude": 50.7762,
    "longitude": 6.0838,
    "coordinates": "N 50 46 34, E 6 5 1",
    "population": 248960
  },
  {
    "name": "Aalborg",
    "country": "Denmark",
    "iso2": "DK",
    "iso3": "DNK",
    "latitude": 57.0337,
    "longitude": 9.9166,
    "coordinates": "N 57 2 1, E 9 54 59",
    "population": 122219
  },
  {
    "name": "Aarhus",
    "country": "Denmark",
    "iso2": "DK",
    "iso3": "DNK",
    "latitude": 56.1572,
    "longitude": 10.2107,
    "coordinates": "N 56 9 25, E 10 12 38",
    "population": 237551
  },
  {
    "name": "Aba",
    "country": "Nigeria",
    "iso2": "NG",
    "iso3": "NGA",
    "latitude": 5.1167,
    "longitude": 7.3667,
    "coordinates": "N 5 7 0, E 7 22 0",
    "population": 1530000
  },
  {
    "name": "Abaete",
    "country": "Brazil",
    "iso2": "BR",
    "iso3": "BRA",
    "latitude": -19.1583,
    "longitude": -45.4522,
    "coordinates": "S 19 9 29, W 45 27 7",
    "population": 800000
  },
  {
    "name": "Abaetetuba",
    "country": "Brazil",
    "iso2": "BR",
    "iso3": "BRA",
    "latitude": -1.7178,
    "longitude": -48.8828,
    "coordinates": "S 1 43 4, W 48 52 58",
    "population": 151934
  },
  {
    "name": "Abakan",
    "country": "Russia",
    "iso2": "RU",
    "iso3": "RUS",
    "latitude": 53.7167,
    "longitude": 91.4167,
    "coordinates": "N 53 43 0, E 91 25 0",
    "population": 181709
  },
  {
    "name": "Abbotsford",
    "country": "Canada",
    "iso2": "CA",
    "iso3": "CAN",
    "latitude": 49.05,
    "longitude": -122.3167,
    "coordinates": "N 49 3 0, W 122 19 0",
    "population": 141397
  },
  {
    "name": "Abbottabad",
    "country": "Pakistan",
    "iso2": "PK",
    "iso3": "PAK",
    "latitude": 34.15,
    "longitude": 73.2167,
    "coordinates": "N 34 9 0, E 73 13 0",
    "population": 148587
  },
  {
    "name": "Abengourou",
    "country": "C\u00f4te d'Ivoire",
    "iso2": "CI",
    "iso3": "CIV",
    "latitude": 6.7297,
    "longitude": -3.4964,
    "coordinates": "N 6 43 46, W 3 29 47",
    "population": 104020
  },
  {
    "name": "Abeokuta",
    "country": "Nigeria",
    "iso2": "NG",
    "iso3": "NGA",
    "latitude": 7.15,
    "longitude": 3.35,
    "coordinates": "N 7 9 0, E 3 21 0",
    "population": 888924
  },
  {
    "name": "Aberdeen",
    "country": "United Kingdom",
    "iso2": "GB",
    "iso3": "GBR",
    "latitude": 57.15,
    "longitude": -2.11,
    "coordinates": "N 57 9 0, W 2 6 36",
    "population": 200680
  },
  {
    "name": "Abertawe",
    "country": "United Kingdom",
    "iso2": "GB",
    "iso3": "GBR",
    "latitude": 51.6167,
    "longitude": -3.95,
    "coordinates": "N 51 37 0, W 3 57 0",
    "population": 245508
  },
  {
    "name": "Abha",
    "country": "Saudi Arabia",
    "iso2": "SA",
    "iso3": "SAU",
    "latitude": 18.2167,
    "longitude": 42.5,
    "coordinates": "N 18 13 0, E 42 30 0",
    "population": 236157
  },
  {
    "name": "Abidjan",
    "country": "C\u00f4te d'Ivoire",
    "iso2": "CI",
    "iso3": "CIV",
    "latitude": 5.3364,
    "longitude": -4.0267,
    "coordinates": "N 5 20 11, W 4 1 36",
    "population": 4980000
  },
  {
    "name": "Abiko",
    "country": "Japan",
    "iso2": "JP",
    "iso3": "JPN",
    "latitude": 35.8642,
    "longitude": 140.0282,
    "coordinates": "N 35 51 51, E 140 1 41",
    "population": 130290
  },
  {
    "name": "Abilene",
    "country": "United States",
    "iso2": "US",
    "iso3": "USA",
    "latitude": 32.4543,
    "longitude": -99.7384,
    "coordinates": "N 32 27 15, W 99 44 18",
    "population": 123420
  },
  {
    "name": "Abohar",
    "country": "India",
    "iso2": "IN",
    "iso3": "IND",
    "latitude": 30.1204,
    "longitude": 74.29,
    "coordinates": "N 30 7 13, E 74 17 24",
    "population": 130603
  },
  {
    "name": "Abu Dhabi",
    "country": "United Arab Emirates",
    "iso2": "AE",
    "iso3": "ARE",
    "latitude": 24.4511,
    "longitude": 54.3969,
    "coordinates": "N 24 27 3, E 54 23 48",
    "population": 1483000
  },
  {
    "name": "Abu Hulayfah",
    "country": "Kuwait",
    "iso2": "KW",
    "iso3": "KWT",
    "latitude": 29.3333,
    "longitude": 48.0,
    "coordinates": "N 29 19 59, E 48 0 0",
    "population": 164212
  },
  {
    "name": "Abuja",
    "country": "Nigeria",
    "iso2": "NG",
    "iso3": "NGA",
    "latitude": 9.0556,
    "longitude": 7.4914,
    "coordinates": "N 9 3 20, E 7 29 29",
    "population": 1235880
  },
  {
    "name": "Acailandia",
    "country": "Brazil",
    "iso2": "BR",
    "iso3": "BRA",
    "latitude": -4.9469,
    "longitude": -47.505,
    "coordinates": "S 4 56 48, W 47 30 18",
    "population": 104047
  },
  {
    "name": "Acapulco de Juarez",
    "country": "Mexico",
    "iso2": "MX",
    "iso3": "MEX",
    "latitude": 16.8636,
    "longitude": -99.8825,
    "coordinates": "N 16 51 48, W 99 52 57",
    "population": 673478
  },
  {
    "name": "Acarigua",
    "country": "Venezuela",
    "iso2": "VE",
    "iso3": "VEN",
    "latitude": 9.5597,
    "longitude": -69.2019,
    "coordinates": "N 9 33 34, W 69 12 6",
    "population": 195637
  },
  {
    "name": "Accra",
    "country": "Ghana",
    "iso2": "GH",
    "iso3": "GHA",
    "latitude": 5.6037,
    "longitude": -0.187,
    "coordinates": "N 5 36 13, W 0 11 13",
    "population": 2291352
  },
  {
    "name": "Achinsk",
    "country": "Russia",
    "iso2": "RU",
    "iso3": "RUS",
    "latitude": 56.2817,
    "longitude": 90.5039,
    "coordinates": "N 56 16 54, E 90 30 14",
    "population": 105264
  },
  {
    "name": "Ad Dammam",
    "country": "Saudi Arabia",
    "iso2": "SA",
    "iso3": "SAU",
    "latitude": 26.4333,
    "longitude": 50.1,
    "coordinates": "N 26 25 59, E 50 6 0",
    "population": 903312
  },
  {
    "name": "Ad Diwaniyah",
    "country": "Iraq",
    "iso2": "IQ",
    "iso3": "IRQ",
    "latitude": 31.9892,
    "longitude": 44.9247,
    "coordinates": "N 31 59 21, E 44 55 28",
    "population": 391600
  },
  {
    "name": "Adachi",
    "country": "Japan",
    "iso2": "JP",
    "iso3": "JPN",
    "latitude": 35.7833,
    "longitude": 139.8,
    "coordinates": "N 35 46 59, E 139 48 0",
    "population": 682326
  },
  {
    "name": "Adana",
    "country": "Turkey",
    "iso2": "TR",
    "iso3": "TUR",
    "latitude": 37.0,
    "longitude": 35.325,
    "coordinates": "N 37 0 0, E 35 19 30",
    "population": 289919
  },
  {
    "name": "Addis Ababa",
    "country": "Ethiopia",
    "iso2": "ET",
    "iso3": "ETH",
    "latitude": 9.0272,
    "longitude": 38.7369,
    "coordinates": "N 9 1 37, E 38 44 12",
    "population": 3041002
  },
  {
    "name": "Adelaide",
    "country": "Australia",
    "iso2": "AU",
    "iso3": "AUS",
    "latitude": -34.9275,
    "longitude": 138.6,
    "coordinates": "S 34 55 39, E 138 36 0",
    "population": 1295714
  },
  {
    "name": "Aden",
    "country": "Yemen",
    "iso2": "YE",
    "iso3": "YEM",
    "latitude": 12.8,
    "longitude": 45.0333,
    "coordinates": "N 12 48 0, E 45 1 59",
    "population": 507355
  },
  {
    "name": "Adigrat",
    "country": "Ethiopia",
    "iso2": "ET",
    "iso3": "ETH",
    "latitude": 14.2804,
    "longitude": 39.47,
    "coordinates": "N 14 16 49, E 39 28 12",
    "population": 104021
  },
  {
    "name": "Adilabad",
    "country": "India",
    "iso2": "IN",
    "iso3": "IND",
    "latitude": 19.6667,
    "longitude": 78.5333,
    "coordinates": "N 19 40 0, E 78 31 59",
    "population": 117167
  },
  {
    "name": "Ado-Ekiti",
    "country": "Nigeria",
    "iso2": "NG",
    "iso3": "NGA",
    "latitude": 7.6167,
    "longitude": 5.2167,
    "coordinates": "N 7 37 0, E 5 13 0",
    "population": 446749
  },
  {
    "name": "Agadez",
    "country": "Niger",
    "iso2": "NE",
    "iso3": "NER",
    "latitude": 16.9959,
    "longitude": 7.9828,
    "coordinates": "N 16 59 45, E 7 58 58",
    "population": 117770
  },
  {
    "name": "Agadir",
    "country": "Morocco",
    "iso2": "MA",
    "iso3": "MAR",
    "latitude": 30.4167,
    "longitude": -9.5833,
    "coordinates": "N 30 25 0, W 9 34 59",
    "population": 421844
  },
  {
    "name": "Agartala",
    "country": "India",
    "iso2": "IN",
    "iso3": "IND",
    "latitude": 23.8333,
    "longitude": 91.2667,
    "coordinates": "N 23 49 59, E 91 16 0",
    "population": 522613
  },
  {
    "name": "Ageoshimo",
    "country": "Japan",
    "iso2": "JP",
    "iso3": "JPN",
    "latitude": 35.9775,
    "longitude": 139.5933,
    "coordinates": "N 35 58 39, E 139 35 35",
    "population": 226616
  },
  {
    "name": "Agra",
    "country": "India",
    "iso2": "IN",
    "iso3": "IND",
    "latitude": 27.1724,
    "longitude": 78.0131,
    "coordinates": "N 27 10 20, E 78 0 47",
    "population": 1592000
  },
  {
    "name": "Aguachica",
    "country": "Colombia",
    "iso2": "CO",
    "iso3": "COL",
    "latitude": 8.3067,
    "longitude": -73.6153,
    "coordinates": "N 8 18 24, W 73 36 55",
    "population": 109621
  },
  {
    "name": "Aguascalientes",
    "country": "Mexico",
    "iso2": "MX",
    "iso3": "MEX",
    "latitude": 21.876,
    "longitude": -102.296,
    "coordinates": "N 21 52 33, W 102 17 45",
    "population": 934424
  },
  {
    "name": "Ahar",
    "country": "Iran",
    "iso2": "IR",
    "iso3": "IRN",
    "latitude": 38.475,
    "longitude": 47.0603,
    "coordinates": "N 38 28 30, E 47 3 37",
    "population": 100641
  },
  {
    "name": "Ahmadnagar",
    "country": "India",
    "iso2": "IN",
    "iso3": "IND",
    "latitude": 19.0833,
    "longitude": 74.7333,
    "coordinates": "N 19 4 59, E 74 43 59",
    "population": 350859
  },
  {
    "name": "Ahmadpur East",
    "country": "Pakistan",
    "iso2": "PK",
    "iso3": "PAK",
    "latitude": 29.1453,
    "longitude": 71.2617,
    "coordinates": "N 29 8 43, E 71 15 42",
    "population": 128112
  },
  {
    "name": "Ahmedabad",
    "country": "India",
    "iso2": "IN",
    "iso3": "IND",
    "latitude": 23.03,
    "longitude": 72.58,
    "coordinates": "N 23 1 48, E 72 34 48",
    "population": 7717000
  },
  {
    "name": "Ahuachapan",
    "country": "El Salvador",
    "iso2": "SV",
    "iso3": "SLV",
    "latitude": 13.9214,
    "longitude": -89.845,
    "coordinates": "N 13 55 17, W 89 50 42",
    "population": 110511
  },
  {
    "name": "Ahvaz",
    "country": "Iran",
    "iso2": "IR",
    "iso3": "IRN",
    "latitude": 31.3203,
    "longitude": 48.6692,
    "coordinates": "N 31 19 13, E 48 40 9",
    "population": 1184788
  },
  {
    "name": "Aihua",
    "country": "China",
    "iso2": "CN",
    "iso3": "CHN",
    "latitude": 24.4629,
    "longitude": 100.135,
    "coordinates": "N 24 27 46, E 100 8 6",
    "population": 106054
  },
  {
    "name": "Ailan Mubage",
    "country": "China",
    "iso2": "CN",
    "iso3": "CHN",
    "latitude": 43.9167,
    "longitude": 81.3167,
    "coordinates": "N 43 55 0, E 81 19 0",
    "population": 526745
  },
  {
    "name": "Ain Beida",
    "country": "Algeria",
    "iso2": "DZ",
    "iso3": "DZA",
    "latitude": 35.7964,
    "longitude": 7.3928,
    "coordinates": "N 35 47 47, E 7 23 34",
    "population": 116064
  },
  {
    "name": "Ain Oussera",
    "country": "Algeria",
    "iso2": "DZ",
    "iso3": "DZA",
    "latitude": 35.4489,
    "longitude": 2.9044,
    "coordinates": "N 35 26 56, E 2 54 15",
    "population": 101239
  },
  {
    "name": "Ait Melloul",
    "country": "Morocco",
    "iso2": "MA",
    "iso3": "MAR",
    "latitude": 30.3342,
    "longitude": -9.4972,
    "coordinates": "N 30 20 3, W 9 29 49",
    "population": 171847
  },
  {
    "name": "Aix-en-Provence",
    "country": "France",
    "iso2": "FR",
    "iso3": "FRA",
    "latitude": 43.5263,
    "longitude": 5.4454,
    "coordinates": "N 43 31 34, E 5 26 43",
    "population": 143097
  },
  {
    "name": "Aizawl",
    "country": "India",
    "iso2": "IN",
    "iso3": "IND",
    "latitude": 23.7333,
    "longitude": 92.7167,
    "coordinates": "N 23 43 59, E 92 43 0",
    "population": 293416
  },
  {
    "name": "Aizuwakamatsu",
    "country": "Japan",
    "iso2": "JP",
    "iso3": "JPN",
    "latitude": 37.4947,
    "longitude": 139.9297,
    "coordinates": "N 37 29 40, E 139 55 46",
    "population": 117924
  },
  {
    "name": "Ajax",
    "country": "Canada",
    "iso2": "CA",
    "iso3": "CAN",
    "latitude": 43.8583,
    "longitude": -79.0364,
    "coordinates": "N 43 51 29, W 79 2 11",
    "population": 119677
  },
  {
    "name": "Ajdabiya",
    "country": "Libya",
    "iso2": "LY",
    "iso3": "LBY",
    "latitude": 30.77,
    "longitude": 20.22,
    "coordinates": "N 30 46 12, E 20 13 12",
    "population": 143833
  },
  {
    "name": "Ajmer",
    "country": "India",
    "iso2": "IN",
    "iso3": "IND",
    "latitude": 26.468,
    "longitude": 74.639,
    "coordinates": "N 26 28 4, E 74 38 20",
    "population": 542321
  },
  {
    "name": "Akhmim",
    "country": "Egypt",
    "iso2": "EG",
    "iso3": "EGY",
    "latitude": 26.5642,
    "longitude": 31.7461,
    "coordinates": "N 26 33 51, E 31 44 45",
    "population": 101509
  },
  {
    "name": "Akishima",
    "country": "Japan",
    "iso2": "JP",
    "iso3": "JPN",
    "latitude": 35.7056,
    "longitude": 139.3536,
    "coordinates": "N 35 42 20, E 139 21 12",
    "population": 112110
  },
  {
    "name": "Akita",
    "country": "Japan",
    "iso2": "JP",
    "iso3": "JPN",
    "latitude": 39.7197,
    "longitude": 140.1025,
    "coordinates": "N 39 43 10, E 140 6 9",
    "population": 302984
  },
  {
    "name": "Akola",
    "country": "India",
    "iso2": "IN",
    "iso3": "IND",
    "latitude": 20.7333,
    "longitude": 77.0,
    "coordinates": "N 20 43 59, E 77 0 0",
    "population": 425817
  },
  {
    "name": "Akron",
    "country": "United States",
    "iso2": "US",
    "iso3": "USA",
    "latitude": 41.0798,
    "longitude": -81.5219,
    "coordinates": "N 41 4 47, W 81 31 18",
    "population": 565208
  },
  {
    "name": "Aksu",
    "country": "China",
    "iso2": "CN",
    "iso3": "CHN",
    "latitude": 41.1664,
    "longitude": 80.25,
    "coordinates": "N 41 9 59, E 80 15 0",
    "population": 535657
  },
  {
    "name": "Akure",
    "country": "Nigeria",
    "iso2": "NG",
    "iso3": "NGA",
    "latitude": 7.25,
    "longitude": 5.195,
    "coordinates": "N 7 15 0, E 5 11 42",
    "population": 847903
  },
  {
    "name": "Al Basrah",
    "country": "Iraq",
    "iso2": "IQ",
    "iso3": "IRQ",
    "latitude": 30.515,
    "longitude": 47.81,
    "coordinates": "N 30 30 54, E 47 48 36",
    "population": 1326564
  },
  {
    "name": "Al Bayda",
    "country": "Libya",
    "iso2": "LY",
    "iso3": "LBY",
    "latitude": 32.7628,
    "longitude": 21.755,
    "coordinates": "N 32 45 46, E 21 45 18",
    "population": 250000
  },
  {
    "name": "Al Fallujah",
    "country": "Iraq",
    "iso2": "IQ",
    "iso3": "IRQ",
    "latitude": 33.35,
    "longitude": 43.7833,
    "coordinates": "N 33 21 0, E 43 46 59",
    "population": 326471
  },
  {
    "name": "Al Faw",
    "country": "Iraq",
    "iso2": "IQ",
    "iso3": "IRQ",
    "latitude": 29.98,
    "longitude": 48.47,
    "coordinates": "N 29 58 48, E 48 28 12",
    "population": 105080
  },
  {
    "name": "Al Fayyum",
    "country": "Egypt",
    "iso2": "EG",
    "iso3": "EGY",
    "latitude": 29.3,
    "longitude": 30.8333,
    "coordinates": "N 29 18 0, E 30 49 59",
    "population": 315940
  },
  {
    "name": "Al Fqih Ben Calah",
    "country": "Morocco",
    "iso2": "MA",
    "iso3": "MAR",
    "latitude": 32.6,
    "longitude": -6.7667,
    "coordinates": "N 32 36 0, W 6 46 0",
    "population": 102019
  },
  {
    "name": "Al Ghardaqah",
    "country": "Egypt",
    "iso2": "EG",
    "iso3": "EGY",
    "latitude": 27.2578,
    "longitude": 33.8117,
    "coordinates": "N 27 15 28, E 33 48 42",
    "population": 160901
  },
  {
    "name": "Al Hajar al Aswad",
    "country": "Syria",
    "iso2": "SY",
    "iso3": "SYR",
    "latitude": 33.4581,
    "longitude": 36.3053,
    "coordinates": "N 33 27 29, E 36 18 19",
    "population": 101827
  },
  {
    "name": "Al Hasakah",
    "country": "Syria",
    "iso2": "SY",
    "iso3": "SYR",
    "latitude": 36.4833,
    "longitude": 40.75,
    "coordinates": "N 36 28 59, E 40 45 0",
    "population": 128100
  },
  {
    "name": "Al Hillah",
    "country": "Saudi Arabia",
    "iso2": "SA",
    "iso3": "SAU",
    "latitude": 23.4895,
    "longitude": 46.7564,
    "coordinates": "N 23 29 22, E 46 45 23",
    "population": 594605
  },
  {
    "name": "Al Hillah",
    "country": "Iraq",
    "iso2": "IQ",
    "iso3": "IRQ",
    "latitude": 32.4833,
    "longitude": 44.4333,
    "coordinates": "N 32 28 59, E 44 25 59",
    "population": 541034
  },
  {
    "name": "Al Hudaydah",
    "country": "Yemen",
    "iso2": "YE",
    "iso3": "YEM",
    "latitude": 14.8022,
    "longitude": 42.9511,
    "coordinates": "N 14 48 7, E 42 57 3",
    "population": 548433
  },
  {
    "name": "Al Hufuf",
    "country": "Saudi Arabia",
    "iso2": "SA",
    "iso3": "SAU",
    "latitude": 25.3608,
    "longitude": 49.5997,
    "coordinates": "N 25 21 38, E 49 35 58",
    "population": 660788
  },
  {
    "name": "Al Jahra",
    "country": "Kuwait",
    "iso2": "KW",
    "iso3": "KWT",
    "latitude": 29.3375,
    "longitude": 47.6581,
    "coordinates": "N 29 20 15, E 47 39 29",
    "population": 194193
  },
  {
    "name": "Al Jubayl",
    "country": "Saudi Arabia",
    "iso2": "SA",
    "iso3": "SAU",
    "latitude": 27.0046,
    "longitude": 49.646,
    "coordinates": "N 27 0 16, E 49 38 45",
    "population": 237274
  },
  {
    "name": "Al Kharj",
    "country": "Saudi Arabia",
    "iso2": "SA",
    "iso3": "SAU",
    "latitude": 24.1556,
    "longitude": 47.312,
    "coordinates": "N 24 9 20, E 47 18 43",
    "population": 298428
  },
  {
    "name": "Al Khmissat",
    "country": "Morocco",
    "iso2": "MA",
    "iso3": "MAR",
    "latitude": 33.81,
    "longitude": -6.06,
    "coordinates": "N 33 48 36, W 6 3 36",
    "population": 131542
  },
  {
    "name": "Al Khubar",
    "country": "Saudi Arabia",
    "iso2": "SA",
    "iso3": "SAU",
    "latitude": 26.3,
    "longitude": 50.2167,
    "coordinates": "N 26 18 0, E 50 13 0",
    "population": 219679
  },
  {
    "name": "Al Khums",
    "country": "Libya",
    "iso2": "LY",
    "iso3": "LBY",
    "latitude": 32.6604,
    "longitude": 14.26,
    "coordinates": "N 32 39 37, E 14 15 36",
    "population": 201943
  },
  {
    "name": "Al Kufah",
    "country": "Iraq",
    "iso2": "IQ",
    "iso3": "IRQ",
    "latitude": 32.03,
    "longitude": 44.4,
    "coordinates": "N 32 1 48, E 44 24 0",
    "population": 166100
  },
  {
    "name": "Al Kut",
    "country": "Iraq",
    "iso2": "IQ",
    "iso3": "IRQ",
    "latitude": 32.4907,
    "longitude": 45.8304,
    "coordinates": "N 32 29 26, E 45 49 49",
    "population": 321521
  },
  {
    "name": "Al Manaqil",
    "country": "Sudan",
    "iso2": "SD",
    "iso3": "SDN",
    "latitude": 14.2504,
    "longitude": 32.98,
    "coordinates": "N 14 15 1, E 32 58 47",
    "population": 151827
  },
  {
    "name": "Al Mansurah",
    "country": "Egypt",
    "iso2": "EG",
    "iso3": "EGY",
    "latitude": 31.05,
    "longitude": 31.3833,
    "coordinates": "N 31 3 0, E 31 22 59",
    "population": 960423
  },
  {
    "name": "Al Marj",
    "country": "Libya",
    "iso2": "LY",
    "iso3": "LBY",
    "latitude": 32.5005,
    "longitude": 20.83,
    "coordinates": "N 32 30 1, E 20 49 48",
    "population": 169540
  },
  {
    "name": "Al Minya",
    "country": "Egypt",
    "iso2": "EG",
    "iso3": "EGY",
    "latitude": 28.0833,
    "longitude": 30.75,
    "coordinates": "N 28 4 59, E 30 45 0",
    "population": 236043
  },
  {
    "name": "Al Mubarraz",
    "country": "Saudi Arabia",
    "iso2": "SA",
    "iso3": "SAU",
    "latitude": 25.4416,
    "longitude": 49.6642,
    "coordinates": "N 25 26 29, E 49 39 51",
    "population": 298562
  },
  {
    "name": "Al Mukalla",
    "country": "Yemen",
    "iso2": "YE",
    "iso3": "YEM",
    "latitude": 14.5333,
    "longitude": 49.1333,
    "coordinates": "N 14 31 59, E 49 7 59",
    "population": 144137
  },
  {
    "name": "Al Qamishli",
    "country": "Syria",
    "iso2": "SY",
    "iso3": "SYR",
    "latitude": 37.05,
    "longitude": 41.2167,
    "coordinates": "N 37 3 0, E 41 13 0",
    "population": 184231
  },
  {
    "name": "Al Qatif",
    "country": "Saudi Arabia",
    "iso2": "SA",
    "iso3": "SAU",
    "latitude": 26.5196,
    "longitude": 50.0115,
    "coordinates": "N 26 31 10, E 50 0 41",
    "population": 368892
  },
  {
    "name": "Al `Amarah",
    "country": "Iraq",
    "iso2": "IQ",
    "iso3": "IRQ",
    "latitude": 31.8333,
    "longitude": 47.15,
    "coordinates": "N 31 49 59, E 47 9 0",
    "population": 511500
  },
  {
    "name": "Al `Aqabah",
    "country": "Jordan",
    "iso2": "JO",
    "iso3": "JOR",
    "latitude": 29.5167,
    "longitude": 35.0,
    "coordinates": "N 29 31 0, E 35 0 0",
    "population": 140000
  },
  {
    "name": "Al `Arish",
    "country": "Egypt",
    "iso2": "EG",
    "iso3": "EGY",
    "latitude": 31.1249,
    "longitude": 33.8006,
    "coordinates": "N 31 7 29, E 33 48 2",
    "population": 178651
  },
  {
    "name": "Al `Ayn",
    "country": "United Arab Emirates",
    "iso2": "AE",
    "iso3": "ARE",
    "latitude": 24.2075,
    "longitude": 55.7447,
    "coordinates": "N 24 12 27, E 55 44 40",
    "population": 766936
  },
  {
    "name": "Alagoinhas",
    "country": "Brazil",
    "iso2": "BR",
    "iso3": "BRA",
    "latitude": -12.1356,
    "longitude": -38.4189,
    "coordinates": "S 12 8 8, W 38 25 8",
    "population": 154495
  },
  {
    "name": "Albacete",
    "country": "Spain",
    "iso2": "ES",
    "iso3": "ESP",
    "latitude": 38.9956,
    "longitude": -1.8558,
    "coordinates": "N 38 59 44, W 1 51 20",
    "population": 172722
  },
  {
    "name": "Albany",
    "country": "United States",
    "iso2": "US",
    "iso3": "USA",
    "latitude": 42.6664,
    "longitude": -73.7987,
    "coordinates": "N 42 39 59, W 73 47 55",
    "population": 586383
  },
  {
    "name": "Alberton",
    "country": "South Africa",
    "iso2": "ZA",
    "iso3": "ZAF",
    "latitude": -26.2672,
    "longitude": 28.1219,
    "coordinates": "S 26 16 1, E 28 7 18",
    "population": 121536
  },
  {
    "name": "Albuquerque",
    "country": "United States",
    "iso2": "US",
    "iso3": "USA",
    "latitude": 35.1053,
    "longitude": -106.6464,
    "coordinates": "N 35 6 19, W 106 38 47",
    "population": 761195
  },
  {
    "name": "Alcala de Henares",
    "country": "Spain",
    "iso2": "ES",
    "iso3": "ESP",
    "latitude": 40.4818,
    "longitude": -3.3643,
    "coordinates": "N 40 28 54, W 3 21 51",
    "population": 195982
  },
  {
    "name": "Alchevsk",
    "country": "Ukraine",
    "iso2": "UA",
    "iso3": "UKR",
    "latitude": 48.4672,
    "longitude": 38.7983,
    "coordinates": "N 48 28 1, E 38 47 53",
    "population": 105398
  },
  {
    "name": "Alcobendas",
    "country": "Spain",
    "iso2": "ES",
    "iso3": "ESP",
    "latitude": 40.5333,
    "longitude": -3.6333,
    "coordinates": "N 40 31 59, W 3 37 59",
    "population": 116589
  },
  {
    "name": "Alcorcon",
    "country": "Spain",
    "iso2": "ES",
    "iso3": "ESP",
    "latitude": 40.35,
    "longitude": -3.8333,
    "coordinates": "N 40 21 0, W 3 49 59",
    "population": 170817
  },
  {
    "name": "Aleppo",
    "country": "Syria",
    "iso2": "SY",
    "iso3": "SYR",
    "latitude": 36.2,
    "longitude": 37.15,
    "coordinates": "N 36 12 0, E 37 9 0",
    "population": 1916781
  },
  {
    "name": "Alexandria",
    "country": "Egypt",
    "iso2": "EG",
    "iso3": "EGY",
    "latitude": 31.2,
    "longitude": 29.9167,
    "coordinates": "N 31 12 0, E 29 55 0",
    "population": 4870000
  },
  {
    "name": "Alexandria",
    "country": "United States",
    "iso2": "US",
    "iso3": "USA",
    "latitude": 38.8185,
    "longitude": -77.0861,
    "coordinates": "N 38 49 6, W 77 5 9",
    "population": 159428
  },
  {
    "name": "Algeciras",
    "country": "Spain",
    "iso2": "ES",
    "iso3": "ESP",
    "latitude": 36.1275,
    "longitude": -5.4539,
    "coordinates": "N 36 7 38, W 5 27 14",
    "population": 122982
  },
  {
    "name": "Algiers",
    "country": "Algeria",
    "iso2": "DZ",
    "iso3": "DZA",
    "latitude": 36.7764,
    "longitude": 3.0586,
    "coordinates": "N 36 46 35, E 3 3 30",
    "population": 3415811
  },
  {
    "name": "Alicante",
    "country": "Spain",
    "iso2": "ES",
    "iso3": "ESP",
    "latitude": 38.3453,
    "longitude": -0.4831,
    "coordinates": "N 38 20 43, W 0 28 59",
    "population": 337304
  },
  {
    "name": "Aligarh",
    "country": "India",
    "iso2": "IN",
    "iso3": "IND",
    "latitude": 27.88,
    "longitude": 78.08,
    "coordinates": "N 27 52 48, E 78 4 48",
    "population": 1131160
  },
  {
    "name": "Alkmaar",
    "country": "Netherlands",
    "iso2": "NL",
    "iso3": "NLD",
    "latitude": 52.6289,
    "longitude": 4.744,
    "coordinates": "N 52 37 44, E 4 44 38",
    "population": 107822
  },
  {
    "name": "Allahabad",
    "country": "India",
    "iso2": "IN",
    "iso3": "IND",
    "latitude": 25.45,
    "longitude": 81.85,
    "coordinates": "N 25 27 0, E 81 51 0",
    "population": 5954391
  },
  {
    "name": "Allen",
    "country": "United States",
    "iso2": "US",
    "iso3": "USA",
    "latitude": 33.1088,
    "longitude": -96.6735,
    "coordinates": "N 33 6 31, W 96 40 24",
    "population": 105623
  },
  {
    "name": "Allentown",
    "country": "United States",
    "iso2": "US",
    "iso3": "USA",
    "latitude": 40.5961,
    "longitude": -75.4756,
    "coordinates": "N 40 35 45, W 75 28 32",
    "population": 683794
  },
  {
    "name": "Alleppey",
    "country": "India",
    "iso2": "IN",
    "iso3": "IND",
    "latitude": 9.5004,
    "longitude": 76.37,
    "coordinates": "N 9 30 1, E 76 22 12",
    "population": 176783
  },
  {
    "name": "Almada",
    "country": "Portugal",
    "iso2": "PT",
    "iso3": "PRT",
    "latitude": 38.6803,
    "longitude": -9.1583,
    "coordinates": "N 38 40 49, W 9 9 29",
    "population": 174030
  },
  {
    "name": "Almaty",
    "country": "Kazakhstan",
    "iso2": "KZ",
    "iso3": "KAZ",
    "latitude": 43.25,
    "longitude": 76.9,
    "coordinates": "N 43 15 0, E 76 54 0",
    "population": 1916822
  },
  {
    "name": "Almere",
    "country": "Netherlands",
    "iso2": "NL",
    "iso3": "NLD",
    "latitude": 52.3758,
    "longitude": 5.2256,
    "coordinates": "N 52 22 32, E 5 13 32",
    "population": 207904
  },
  {
    "name": "Almeria",
    "country": "Spain",
    "iso2": "ES",
    "iso3": "ESP",
    "latitude": 36.8403,
    "longitude": -2.4681,
    "coordinates": "N 36 50 25, W 2 28 5",
    "population": 200753
  },
  {
    "name": "Almetyevsk",
    "country": "Russia",
    "iso2": "RU",
    "iso3": "RUS",
    "latitude": 54.9,
    "longitude": 52.3,
    "coordinates": "N 54 54 0, E 52 18 0",
    "population": 154262
  },
  {
    "name": "Almirante Tamandare",
    "country": "Brazil",
    "iso2": "BR",
    "iso3": "BRA",
    "latitude": -25.325,
    "longitude": -49.31,
    "coordinates": "S 25 19 30, W 49 18 36",
    "population": 103204
  },
  {
    "name": "Alor Setar",
    "country": "Malaysia",
    "iso2": "MY",
    "iso3": "MYS",
    "latitude": 6.1167,
    "longitude": 100.3667,
    "coordinates": "N 6 7 0, E 100 22 0",
    "population": 217000
  },
  {
    "name": "Alphen aan den Rijn",
    "country": "Netherlands",
    "iso2": "NL",
    "iso3": "NLD",
    "latitude": 52.1333,
    "longitude": 4.65,
    "coordinates": "N 52 7 59, E 4 39 0",
    "population": 110986
  },
  {
    "name": "Altamira",
    "country": "Brazil",
    "iso2": "BR",
    "iso3": "BRA",
    "latitude": -3.2028,
    "longitude": -52.2058,
    "coordinates": "S 3 12 10, W 52 12 20",
    "population": 109938
  },
  {
    "name": "Altay",
    "country": "China",
    "iso2": "CN",
    "iso3": "CHN",
    "latitude": 47.8666,
    "longitude": 88.1166,
    "coordinates": "N 47 51 59, E 88 6 59",
    "population": 142000
  },
  {
    "name": "Alto Hospicio",
    "country": "Chile",
    "iso2": "CL",
    "iso3": "CHL",
    "latitude": -20.25,
    "longitude": -70.1167,
    "coordinates": "S 20 15 0, W 70 7 0",
    "population": 108375
  },
  {
    "name": "Alvorada",
    "country": "Brazil",
    "iso2": "BR",
    "iso3": "BRA",
    "latitude": -29.99,
    "longitude": -51.0839,
    "coordinates": "S 29 59 24, W 51 5 2",
    "population": 195673
  },
  {
    "name": "Alwar",
    "country": "India",
    "iso2": "IN",
    "iso3": "IND",
    "latitude": 27.5667,
    "longitude": 76.6167,
    "coordinates": "N 27 34 0, E 76 37 0",
    "population": 341422
  },
  {
    "name": "Amadora",
    "country": "Portugal",
    "iso2": "PT",
    "iso3": "PRT",
    "latitude": 38.75,
    "longitude": -9.2333,
    "coordinates": "N 38 45 0, W 9 13 59",
    "population": 175136
  },
  {
    "name": "Amagasaki",
    "country": "Japan",
    "iso2": "JP",
    "iso3": "JPN",
    "latitude": 34.7333,
    "longitude": 135.4,
    "coordinates": "N 34 43 59, E 135 24 0",
    "population": 450506
  },
  {
    "name": "Amarillo",
    "country": "United States",
    "iso2": "US",
    "iso3": "USA",
    "latitude": 35.1988,
    "longitude": -101.8311,
    "coordinates": "N 35 11 55, W 101 49 51",
    "population": 205603
  },
  {
    "name": "Amatitlan",
    "country": "Guatemala",
    "iso2": "GT",
    "iso3": "GTM",
    "latitude": 14.4741,
    "longitude": -90.6247,
    "coordinates": "N 14 28 26, W 90 37 28",
    "population": 125000
  },
  {
    "name": "Ambala",
    "country": "India",
    "iso2": "IN",
    "iso3": "IND",
    "latitude": 30.3786,
    "longitude": 76.7725,
    "coordinates": "N 30 22 42, E 76 46 21",
    "population": 146787
  },
  {
    "name": "Ambato",
    "country": "Ecuador",
    "iso2": "EC",
    "iso3": "ECU",
    "latitude": -1.2417,
    "longitude": -78.6197,
    "coordinates": "S 1 14 30, W 78 37 10",
    "population": 165185
  },
  {
    "name": "Ambon",
    "country": "Indonesia",
    "iso2": "ID",
    "iso3": "IDN",
    "latitude": -3.705,
    "longitude": 128.17,
    "coordinates": "S 3 42 18, E 128 10 11",
    "population": 372249
  },
  {
    "name": "Americana",
    "country": "Brazil",
    "iso2": "BR",
    "iso3": "BRA",
    "latitude": -22.7389,
    "longitude": -47.3308,
    "coordinates": "S 22 44 20, W 47 19 50",
    "population": 229322
  },
  {
    "name": "Amersfoort",
    "country": "Netherlands",
    "iso2": "NL",
    "iso3": "NLD",
    "latitude": 52.15,
    "longitude": 5.38,
    "coordinates": "N 52 9 0, E 5 22 48",
    "population": 156286
  },
  {
    "name": "Amherst",
    "country": "United States",
    "iso2": "US",
    "iso3": "USA",
    "latitude": 43.0117,
    "longitude": -78.7569,
    "coordinates": "N 43 0 42, W 78 45 24",
    "population": 125509
  },
  {
    "name": "Amiens",
    "country": "France",
    "iso2": "FR",
    "iso3": "FRA",
    "latitude": 49.892,
    "longitude": 2.299,
    "coordinates": "N 49 53 31, E 2 17 56",
    "population": 133891
  },
  {
    "name": "Amman",
    "country": "Jordan",
    "iso2": "JO",
    "iso3": "JOR",
    "latitude": 31.95,
    "longitude": 35.9333,
    "coordinates": "N 31 57 0, E 35 55 59",
    "population": 4007526
  },
  {
    "name": "Amol",
    "country": "Iran",
    "iso2": "IR",
    "iso3": "IRN",
    "latitude": 36.4669,
    "longitude": 52.3569,
    "coordinates": "N 36 28 0, E 52 21 24",
    "population": 237528
  },
  {
    "name": "Amravati",
    "country": "India",
    "iso2": "IN",
    "iso3": "IND",
    "latitude": 20.9333,
    "longitude": 77.75,
    "coordinates": "N 20 55 59, E 77 45 0",
    "population": 549370
  },
  {
    "name": "Amritsar",
    "country": "India",
    "iso2": "IN",
    "iso3": "IND",
    "latitude": 31.6269,
    "longitude": 74.877,
    "coordinates": "N 31 37 36, E 74 52 37",
    "population": 1132383
  },
  {
    "name": "Amsterdam",
    "country": "Netherlands",
    "iso2": "NL",
    "iso3": "NLD",
    "latitude": 52.3667,
    "longitude": 4.8833,
    "coordinates": "N 52 22 0, E 4 52 59",
    "population": 862965
  },
  {
    "name": "An Najaf",
    "country": "Iraq",
    "iso2": "IQ",
    "iso3": "IRQ",
    "latitude": 32.029,
    "longitude": 44.3396,
    "coordinates": "N 32 1 44, E 44 20 22",
    "population": 724700
  },
  {
    "name": "An Nasiriyah",
    "country": "Iraq",
    "iso2": "IQ",
    "iso3": "IRQ",
    "latitude": 31.0439,
    "longitude": 46.2575,
    "coordinates": "N 31 2 38, E 46 15 27",
    "population": 541600
  },
  {
    "name": "An Nuhud",
    "country": "Sudan",
    "iso2": "SD",
    "iso3": "SDN",
    "latitude": 12.6904,
    "longitude": 28.42,
    "coordinates": "N 12 41 25, E 28 25 12",
    "population": 108008
  },
  {
    "name": "Anaco",
    "country": "Venezuela",
    "iso2": "VE",
    "iso3": "VEN",
    "latitude": 9.4333,
    "longitude": -64.4667,
    "coordinates": "N 9 25 59, W 64 28 0",
    "population": 162704
  },
  {
    "name": "Anaheim",
    "country": "United States",
    "iso2": "US",
    "iso3": "USA",
    "latitude": 33.839,
    "longitude": -117.8572,
    "coordinates": "N 33 50 20, W 117 51 25",
    "population": 350365
  },
  {
    "name": "Ananindeua",
    "country": "Brazil",
    "iso2": "BR",
    "iso3": "BRA",
    "latitude": -1.3658,
    "longitude": -48.3719,
    "coordinates": "S 1 21 56, W 48 22 18",
    "population": 510834
  },
  {
    "name": "Anantapur",
    "country": "India",
    "iso2": "IN",
    "iso3": "IND",
    "latitude": 14.6833,
    "longitude": 77.6,
    "coordinates": "N 14 40 59, E 77 36 0",
    "population": 267161
  },
  {
    "name": "Anapolis",
    "country": "Brazil",
    "iso2": "BR",
    "iso3": "BRA",
    "latitude": -16.3269,
    "longitude": -48.9528,
    "coordinates": "S 16 19 36, W 48 57 10",
    "population": 366491
  },
  {
    "name": "Anchorage",
    "country": "United States",
    "iso2": "US",
    "iso3": "USA",
    "latitude": 61.1508,
    "longitude": -149.1091,
    "coordinates": "N 61 9 2, W 149 6 32",
    "population": 288000
  },
  {
    "name": "Ancona",
    "country": "Italy",
    "iso2": "IT",
    "iso3": "ITA",
    "latitude": 43.6167,
    "longitude": 13.5167,
    "coordinates": "N 43 37 0, E 13 31 0",
    "population": 100924
  },
  {
    "name": "Anda",
    "country": "China",
    "iso2": "CN",
    "iso3": "CHN",
    "latitude": 46.4078,
    "longitude": 125.3252,
    "coordinates": "N 46 24 28, E 125 19 30",
    "population": 520000
  },
  {
    "name": "Anderlecht",
    "country": "Belgium",
    "iso2": "BE",
    "iso3": "BEL",
    "latitude": 50.8392,
    "longitude": 4.3297,
    "coordinates": "N 50 50 21, E 4 19 46",
    "population": 117412
  },
  {
    "name": "Andijon",
    "country": "Uzbekistan",
    "iso2": "UZ",
    "iso3": "UZB",
    "latitude": 40.7,
    "longitude": 72.35,
    "coordinates": "N 40 42 0, E 72 21 59",
    "population": 441700
  },
  {
    "name": "Andimeshk",
    "country": "Iran",
    "iso2": "IR",
    "iso3": "IRN",
    "latitude": 32.45,
    "longitude": 48.35,
    "coordinates": "N 32 27 0, E 48 21 0",
    "population": 135116
  },
  {
    "name": "Andong",
    "country": "South Korea",
    "iso2": "KR",
    "iso3": "KOR",
    "latitude": 36.5656,
    "longitude": 128.725,
    "coordinates": "N 36 33 56, E 128 43 30",
    "population": 162180
  },
  {
    "name": "Angarsk",
    "country": "Russia",
    "iso2": "RU",
    "iso3": "RUS",
    "latitude": 52.5667,
    "longitude": 103.9167,
    "coordinates": "N 52 34 0, E 103 55 0",
    "population": 226374
  },
  {
    "name": "Angeles City",
    "country": "Philippines",
    "iso2": "PH",
    "iso3": "PHL",
    "latitude": 15.1472,
    "longitude": 120.5847,
    "coordinates": "N 15 8 49, E 120 35 4",
    "population": 462928
  },
  {
    "name": "Angers",
    "country": "France",
    "iso2": "FR",
    "iso3": "FRA",
    "latitude": 47.4736,
    "longitude": -0.5542,
    "coordinates": "N 47 28 24, W 0 33 15",
    "population": 154508
  },
  {
    "name": "Angono",
    "country": "Philippines",
    "iso2": "PH",
    "iso3": "PHL",
    "latitude": 14.5234,
    "longitude": 121.1536,
    "coordinates": "N 14 31 24, E 121 9 12",
    "population": 130494
  },
  {
    "name": "Angra dos Reis",
    "country": "Brazil",
    "iso2": "BR",
    "iso3": "BRA",
    "latitude": -23.0069,
    "longitude": -44.3178,
    "coordinates": "S 23 0 24, W 44 19 4",
    "population": 188276
  },
  {
    "name": "Angren",
    "country": "Uzbekistan",
    "iso2": "UZ",
    "iso3": "UZB",
    "latitude": 41.0167,
    "longitude": 70.1333,
    "coordinates": "N 41 1 0, E 70 7 59",
    "population": 126962
  },
  {
    "name": "Anguo",
    "country": "China",
    "iso2": "CN",
    "iso3": "CHN",
    "latitude": 38.4177,
    "longitude": 115.3204,
    "coordinates": "N 38 25 3, E 115 19 13",
    "population": 370317
  },
  {
    "name": "Anjomachi",
    "country": "Japan",
    "iso2": "JP",
    "iso3": "JPN",
    "latitude": 34.9667,
    "longitude": 137.0833,
    "coordinates": "N 34 58 0, E 137 4 59",
    "population": 188801
  },
  {
    "name": "Anju",
    "country": "North Korea",
    "iso2": "KP",
    "iso3": "PRK",
    "latitude": 39.6167,
    "longitude": 125.6667,
    "coordinates": "N 39 37 0, E 125 40 0",
    "population": 240117
  },
  {
    "name": "Ankang",
    "country": "China",
    "iso2": "CN",
    "iso3": "CHN",
    "latitude": 32.6877,
    "longitude": 109.0235,
    "coordinates": "N 32 41 15, E 109 1 24",
    "population": 2629906
  },
  {
    "name": "Anlu",
    "country": "China",
    "iso2": "CN",
    "iso3": "CHN",
    "latitude": 31.2575,
    "longitude": 113.6783,
    "coordinates": "N 31 15 27, E 113 40 41",
    "population": 720000
  },
  {
    "name": "Ann Arbor",
    "country": "United States",
    "iso2": "US",
    "iso3": "USA",
    "latitude": 42.2755,
    "longitude": -83.7312,
    "coordinates": "N 42 16 31, W 83 43 52",
    "population": 322267
  },
  {
    "name": "Annaba",
    "country": "Algeria",
    "iso2": "DZ",
    "iso3": "DZA",
    "latitude": 36.9,
    "longitude": 7.7667,
    "coordinates": "N 36 54 0, E 7 46 0",
    "population": 257359
  },
  {
    "name": "Annecy",
    "country": "France",
    "iso2": "FR",
    "iso3": "FRA",
    "latitude": 45.916,
    "longitude": 6.133,
    "coordinates": "N 45 54 57, E 6 7 58",
    "population": 128199
  },
  {
    "name": "Anqing",
    "country": "China",
    "iso2": "CN",
    "iso3": "CHN",
    "latitude": 30.5,
    "longitude": 117.0333,
    "coordinates": "N 30 30 0, E 117 1 59",
    "population": 4723000
  },
  {
    "name": "Anqiu",
    "country": "China",
    "iso2": "CN",
    "iso3": "CHN",
    "latitude": 36.3619,
    "longitude": 119.1072,
    "coordinates": "N 36 21 42, E 119 6 25",
    "population": 947723
  },
  {
    "name": "Ansan",
    "country": "South Korea",
    "iso2": "KR",
    "iso3": "KOR",
    "latitude": 37.3236,
    "longitude": 126.8219,
    "coordinates": "N 37 19 24, E 126 49 18",
    "population": 652800
  },
  {
    "name": "Anseong",
    "country": "South Korea",
    "iso2": "KR",
    "iso3": "KOR",
    "latitude": 37.0078,
    "longitude": 127.2797,
    "coordinates": "N 37 0 28, E 127 16 46",
    "population": 194765
  },
  {
    "name": "Anshan",
    "country": "China",
    "iso2": "CN",
    "iso3": "CHN",
    "latitude": 41.1066,
    "longitude": 122.9895,
    "coordinates": "N 41 6 23, E 122 59 22",
    "population": 3645884
  },
  {
    "name": "Anshun",
    "country": "China",
    "iso2": "CN",
    "iso3": "CHN",
    "latitude": 26.2456,
    "longitude": 105.934,
    "coordinates": "N 26 14 44, E 105 56 2",
    "population": 2353100
  },
  {
    "name": "Antananarivo",
    "country": "Madagascar",
    "iso2": "MG",
    "iso3": "MDG",
    "latitude": -18.9386,
    "longitude": 47.5214,
    "coordinates": "S 18 56 18, E 47 31 17",
    "population": 2610000
  },
  {
    "name": "Antioch",
    "country": "United States",
    "iso2": "US",
    "iso3": "USA",
    "latitude": 37.9789,
    "longitude": -121.7958,
    "coordinates": "N 37 58 44, W 121 47 44",
    "population": 302419
  },
  {
    "name": "Antipolo",
    "country": "Philippines",
    "iso2": "PH",
    "iso3": "PHL",
    "latitude": 14.5842,
    "longitude": 121.1763,
    "coordinates": "N 14 35 3, E 121 10 34",
    "population": 887399
  },
  {
    "name": "Antofagasta",
    "country": "Chile",
    "iso2": "CL",
    "iso3": "CHL",
    "latitude": -23.6464,
    "longitude": -70.398,
    "coordinates": "S 23 38 47, W 70 23 52",
    "population": 348517
  },
  {
    "name": "Antsirabe",
    "country": "Madagascar",
    "iso2": "MG",
    "iso3": "MDG",
    "latitude": -19.8667,
    "longitude": 47.0333,
    "coordinates": "S 19 52 0, E 47 1 59",
    "population": 257163
  },
  {
    "name": "Antwerp",
    "country": "Belgium",
    "iso2": "BE",
    "iso3": "BEL",
    "latitude": 51.2211,
    "longitude": 4.3997,
    "coordinates": "N 51 13 15, E 4 23 58",
    "population": 529247
  },
  {
    "name": "Anyang",
    "country": "South Korea",
    "iso2": "KR",
    "iso3": "KOR",
    "latitude": 37.3925,
    "longitude": 126.9269,
    "coordinates": "N 37 23 33, E 126 55 36",
    "population": 573296
  },
  {
    "name": "Aomori",
    "country": "Japan",
    "iso2": "JP",
    "iso3": "JPN",
    "latitude": 40.8222,
    "longitude": 140.7475,
    "coordinates": "N 40 49 19, E 140 44 51",
    "population": 425962
  },
  {
    "name": "Ap Da Loi",
    "country": "Vietnam",
    "iso2": "VN",
    "iso3": "VNM",
    "latitude": 11.9304,
    "longitude": 108.42,
    "coordinates": "N 11 55 49, E 108 25 12",
    "population": 256019
  },
  {
    "name": "Apalit",
    "country": "Philippines",
    "iso2": "PH",
    "iso3": "PHL",
    "latitude": 14.9496,
    "longitude": 120.7587,
    "coordinates": "N 14 56 58, E 120 45 31",
    "population": 117160
  },
  {
    "name": "Apapa",
    "country": "Nigeria",
    "iso2": "NG",
    "iso3": "NGA",
    "latitude": 6.4489,
    "longitude": 3.3589,
    "coordinates": "N 6 26 56, E 3 21 32",
    "population": 217362
  },
  {
    "name": "Apartado",
    "country": "Colombia",
    "iso2": "CO",
    "iso3": "COL",
    "latitude": 7.8847,
    "longitude": -76.635,
    "coordinates": "N 7 53 4, W 76 38 6",
    "population": 121003
  },
  {
    "name": "Apatzingan de la Constitucion",
    "country": "Mexico",
    "iso2": "MX",
    "iso3": "MEX",
    "latitude": 19.0886,
    "longitude": -102.3508,
    "coordinates": "N 19 5 18, W 102 21 2",
    "population": 128250
  },
  {
    "name": "Apeldoorn",
    "country": "Netherlands",
    "iso2": "NL",
    "iso3": "NLD",
    "latitude": 52.21,
    "longitude": 5.97,
    "coordinates": "N 52 12 36, E 5 58 12",
    "population": 161156
  },
  {
    "name": "Apopa",
    "country": "El Salvador",
    "iso2": "SV",
    "iso3": "SLV",
    "latitude": 13.8,
    "longitude": -89.1833,
    "coordinates": "N 13 48 0, W 89 10 59",
    "population": 131286
  },
  {
    "name": "Appleton",
    "country": "United States",
    "iso2": "US",
    "iso3": "USA",
    "latitude": 44.2779,
    "longitude": -88.3891,
    "coordinates": "N 44 16 40, W 88 23 20",
    "population": 220570
  },
  {
    "name": "Apucarana",
    "country": "Brazil",
    "iso2": "BR",
    "iso3": "BRA",
    "latitude": -23.5508,
    "longitude": -51.4608,
    "coordinates": "S 23 33 2, W 51 27 38",
    "population": 120919
  },
  {
    "name": "Aqtau",
    "country": "Kazakhstan",
    "iso2": "KZ",
    "iso3": "KAZ",
    "latitude": 43.6525,
    "longitude": 51.1575,
    "coordinates": "N 43 39 9, E 51 9 27",
    "population": 183350
  },
  {
    "name": "Aqtobe",
    "country": "Kazakhstan",
    "iso2": "KZ",
    "iso3": "KAZ",
    "latitude": 50.2836,
    "longitude": 57.2297,
    "coordinates": "N 50 17 0, E 57 13 46",
    "population": 387807
  },
  {
    "name": "Ar Ramadi",
    "country": "Iraq",
    "iso2": "IQ",
    "iso3": "IRQ",
    "latitude": 33.4258,
    "longitude": 43.2992,
    "coordinates": "N 33 25 32, E 43 17 57",
    "population": 874543
  },
  {
    "name": "Ar Ramtha",
    "country": "Jordan",
    "iso2": "JO",
    "iso3": "JOR",
    "latitude": 32.5592,
    "longitude": 36.0069,
    "coordinates": "N 32 33 33, E 36 0 24",
    "population": 155693
  },
  {
    "name": "Ar Raqqah",
    "country": "Syria",
    "iso2": "SY",
    "iso3": "SYR",
    "latitude": 35.95,
    "longitude": 39.01,
    "coordinates": "N 35 57 0, E 39 0 36",
    "population": 299824
  },
  {
    "name": "Aracaju",
    "country": "Brazil",
    "iso2": "BR",
    "iso3": "BRA",
    "latitude": -10.9167,
    "longitude": -37.05,
    "coordinates": "S 10 55 0, W 37 3 0",
    "population": 632744
  },
  {
    "name": "Aracatuba",
    "country": "Brazil",
    "iso2": "BR",
    "iso3": "BRA",
    "latitude": -21.2089,
    "longitude": -50.4328,
    "coordinates": "S 21 12 32, W 50 25 58",
    "population": 192757
  },
  {
    "name": "Arad",
    "country": "Romania",
    "iso2": "RO",
    "iso3": "ROU",
    "latitude": 46.1667,
    "longitude": 21.3167,
    "coordinates": "N 46 10 0, E 21 19 0",
    "population": 159074
  },
  {
    "name": "Araguaina",
    "country": "Brazil",
    "iso2": "BR",
    "iso3": "BRA",
    "latitude": -7.1908,
    "longitude": -48.2069,
    "coordinates": "S 7 11 26, W 48 12 24",
    "population": 150484
  },
  {
    "name": "Araguari",
    "country": "Brazil",
    "iso2": "BR",
    "iso3": "BRA",
    "latitude": -18.6489,
    "longitude": -48.1869,
    "coordinates": "S 18 38 56, W 48 11 12",
    "population": 116871
  },
  {
    "name": "Arak",
    "country": "Iran",
    "iso2": "IR",
    "iso3": "IRN",
    "latitude": 34.08,
    "longitude": 49.7,
    "coordinates": "N 34 4 48, E 49 42 0",
    "population": 520944
  },
  {
    "name": "Arakawa",
    "country": "Japan",
    "iso2": "JP",
    "iso3": "JPN",
    "latitude": 35.7333,
    "longitude": 139.7833,
    "coordinates": "N 35 43 59, E 139 46 59",
    "population": 217891
  },
  {
    "name": "Arapiraca",
    "country": "Brazil",
    "iso2": "BR",
    "iso3": "BRA",
    "latitude": -9.75,
    "longitude": -36.65,
    "coordinates": "S 9 45 0, W 36 39 0",
    "population": 233047
  },
  {
    "name": "Arapongas",
    "country": "Brazil",
    "iso2": "BR",
    "iso3": "BRA",
    "latitude": -23.4189,
    "longitude": -51.4239,
    "coordinates": "S 23 25 8, W 51 25 26",
    "population": 104150
  },
  {
    "name": "Araraquara",
    "country": "Brazil",
    "iso2": "BR",
    "iso3": "BRA",
    "latitude": -21.7939,
    "longitude": -48.1758,
    "coordinates": "S 21 47 38, W 48 10 32",
    "population": 226508
  },
  {
    "name": "Araras",
    "country": "Brazil",
    "iso2": "BR",
    "iso3": "BRA",
    "latitude": -22.3569,
    "longitude": -47.3839,
    "coordinates": "S 22 21 24, W 47 23 2",
    "population": 128895
  },
  {
    "name": "Araruama",
    "country": "Brazil",
    "iso2": "BR",
    "iso3": "BRA",
    "latitude": -22.8728,
    "longitude": -42.3428,
    "coordinates": "S 22 52 22, W 42 20 34",
    "population": 112008
  },
  {
    "name": "Araucaria",
    "country": "Brazil",
    "iso2": "BR",
    "iso3": "BRA",
    "latitude": -25.5928,
    "longitude": -49.41,
    "coordinates": "S 25 35 34, W 49 24 36",
    "population": 119123
  },
  {
    "name": "Araure",
    "country": "Venezuela",
    "iso2": "VE",
    "iso3": "VEN",
    "latitude": 9.5667,
    "longitude": -69.2167,
    "coordinates": "N 9 34 0, W 69 13 0",
    "population": 188800
  },
  {
    "name": "Araxa",
    "country": "Brazil",
    "iso2": "BR",
    "iso3": "BRA",
    "latitude": -19.5928,
    "longitude": -46.9408,
    "coordinates": "S 19 35 34, W 46 56 26",
    "population": 103287
  },
  {
    "name": "Arayat",
    "country": "Philippines",
    "iso2": "PH",
    "iso3": "PHL",
    "latitude": 15.1493,
    "longitude": 120.7692,
    "coordinates": "N 15 8 57, E 120 46 9",
    "population": 144875
  },
  {
    "name": "Ardabil",
    "country": "Iran",
    "iso2": "IR",
    "iso3": "IRN",
    "latitude": 38.25,
    "longitude": 48.3,
    "coordinates": "N 38 15 0, E 48 18 0",
    "population": 529374
  },
  {
    "name": "Arden-Arcade",
    "country": "United States",
    "iso2": "US",
    "iso3": "USA",
    "latitude": 38.6034,
    "longitude": -121.381,
    "coordinates": "N 38 36 12, W 121 22 51",
    "population": 102864
  },
  {
    "name": "Arequipa",
    "country": "Peru",
    "iso2": "PE",
    "iso3": "PER",
    "latitude": -16.3988,
    "longitude": -71.5369,
    "coordinates": "S 16 23 55, W 71 32 12",
    "population": 1008290
  },
  {
    "name": "Argenteuil",
    "country": "France",
    "iso2": "FR",
    "iso3": "FRA",
    "latitude": 48.95,
    "longitude": 2.25,
    "coordinates": "N 48 57 0, E 2 15 0",
    "population": 110213
  },
  {
    "name": "Ariana",
    "country": "Tunisia",
    "iso2": "TN",
    "iso3": "TUN",
    "latitude": 36.8625,
    "longitude": 10.1956,
    "coordinates": "N 36 51 45, E 10 11 44",
    "population": 114486
  },
  {
    "name": "Arica",
    "country": "Chile",
    "iso2": "CL",
    "iso3": "CHL",
    "latitude": -18.4784,
    "longitude": -70.3211,
    "coordinates": "S 18 28 42, W 70 19 15",
    "population": 202131
  },
  {
    "name": "Ariquemes",
    "country": "Brazil",
    "iso2": "BR",
    "iso3": "BRA",
    "latitude": -9.9161,
    "longitude": -63.0408,
    "coordinates": "S 9 54 57, W 63 2 26",
    "population": 105896
  },
  {
    "name": "Arkhangelsk",
    "country": "Russia",
    "iso2": "RU",
    "iso3": "RUS",
    "latitude": 64.55,
    "longitude": 40.5333,
    "coordinates": "N 64 33 0, E 40 31 59",
    "population": 351488
  },
  {
    "name": "Arlington",
    "country": "United States",
    "iso2": "US",
    "iso3": "USA",
    "latitude": 32.6998,
    "longitude": -97.125,
    "coordinates": "N 32 41 59, W 97 7 30",
    "population": 398854
  },
  {
    "name": "Arlington",
    "country": "United States",
    "iso2": "US",
    "iso3": "USA",
    "latitude": 38.8786,
    "longitude": -77.1011,
    "coordinates": "N 38 52 42, W 77 6 3",
    "population": 233464
  },
  {
    "name": "Armavir",
    "country": "Russia",
    "iso2": "RU",
    "iso3": "RUS",
    "latitude": 45.0,
    "longitude": 41.1167,
    "coordinates": "N 45 0 0, E 41 7 0",
    "population": 190709
  },
  {
    "name": "Armenia",
    "country": "Colombia",
    "iso2": "CO",
    "iso3": "COL",
    "latitude": 4.5389,
    "longitude": -75.6725,
    "coordinates": "N 4 32 20, W 75 40 21",
    "population": 301226
  },
  {
    "name": "Arnavutkoy",
    "country": "Turkey",
    "iso2": "TR",
    "iso3": "TUR",
    "latitude": 41.1833,
    "longitude": 28.7333,
    "coordinates": "N 41 10 59, E 28 43 59",
    "population": 156333
  },
  {
    "name": "Arnhem",
    "country": "Netherlands",
    "iso2": "NL",
    "iso3": "NLD",
    "latitude": 51.9833,
    "longitude": 5.9167,
    "coordinates": "N 51 58 59, E 5 55 0",
    "population": 148070
  },
  {
    "name": "Arroyo Naranjo",
    "country": "Cuba",
    "iso2": "CU",
    "iso3": "CUB",
    "latitude": 23.0436,
    "longitude": -82.3328,
    "coordinates": "N 23 2 36, W 82 19 58",
    "population": 210053
  },
  {
    "name": "Artem",
    "country": "Russia",
    "iso2": "RU",
    "iso3": "RUS",
    "latitude": 43.35,
    "longitude": 132.1833,
    "coordinates": "N 43 21 0, E 132 10 59",
    "population": 106692
  },
  {
    "name": "Arua",
    "country": "Uganda",
    "iso2": "UG",
    "iso3": "UGA",
    "latitude": 3.03,
    "longitude": 30.91,
    "coordinates": "N 3 1 48, E 30 54 36",
    "population": 250000
  },
  {
    "name": "Arusha",
    "country": "Tanzania",
    "iso2": "TZ",
    "iso3": "TZA",
    "latitude": -3.3667,
    "longitude": 36.6833,
    "coordinates": "S 3 22 0, E 36 40 59",
    "population": 416442
  },
  {
    "name": "Arvada",
    "country": "United States",
    "iso2": "US",
    "iso3": "USA",
    "latitude": 39.8321,
    "longitude": -105.1511,
    "coordinates": "N 39 49 55, W 105 9 3",
    "population": 121272
  },
  {
    "name": "Arzamas",
    "country": "Russia",
    "iso2": "RU",
    "iso3": "RUS",
    "latitude": 55.3833,
    "longitude": 43.8,
    "coordinates": "N 55 22 59, E 43 48 0",
    "population": 104547
  },
  {
    "name": "As Safirah",
    "country": "Syria",
    "iso2": "SY",
    "iso3": "SYR",
    "latitude": 36.0769,
    "longitude": 37.3725,
    "coordinates": "N 36 4 36, E 37 22 21",
    "population": 106460
  },
  {
    "name": "As Salamiyah",
    "country": "Syria",
    "iso2": "SY",
    "iso3": "SYR",
    "latitude": 35.0111,
    "longitude": 37.0531,
    "coordinates": "N 35 0 39, E 37 3 11",
    "population": 110683
  },
  {
    "name": "As Samawah",
    "country": "Iraq",
    "iso2": "IQ",
    "iso3": "IRQ",
    "latitude": 31.3167,
    "longitude": 45.2833,
    "coordinates": "N 31 19 0, E 45 16 59",
    "population": 215000
  },
  {
    "name": "As Sib",
    "country": "Oman",
    "iso2": "OM",
    "iso3": "OMN",
    "latitude": 23.6802,
    "longitude": 58.1825,
    "coordinates": "N 23 40 48, E 58 10 57",
    "population": 237816
  },
  {
    "name": "As Sulaymaniyah",
    "country": "Iraq",
    "iso2": "IQ",
    "iso3": "IRQ",
    "latitude": 35.55,
    "longitude": 45.4333,
    "coordinates": "N 35 33 59, E 45 25 59",
    "population": 676500
  },
  {
    "name": "As Suwayhirah as Sahil",
    "country": "Oman",
    "iso2": "OM",
    "iso3": "OMN",
    "latitude": 24.362,
    "longitude": 56.7344,
    "coordinates": "N 24 21 43, E 56 44 3",
    "population": 151349
  },
  {
    "name": "Asahikawa",
    "country": "Japan",
    "iso2": "JP",
    "iso3": "JPN",
    "latitude": 43.7706,
    "longitude": 142.365,
    "coordinates": "N 43 46 14, E 142 21 54",
    "population": 331392
  },
  {
    "name": "Asaka",
    "country": "Japan",
    "iso2": "JP",
    "iso3": "JPN",
    "latitude": 35.7972,
    "longitude": 139.5936,
    "coordinates": "N 35 47 49, E 139 35 36",
    "population": 143915
  },
  {
    "name": "Asan",
    "country": "South Korea",
    "iso2": "KR",
    "iso3": "KOR",
    "latitude": 36.35,
    "longitude": 126.9167,
    "coordinates": "N 36 21 0, E 126 55 0",
    "population": 319929
  },
  {
    "name": "Asansol",
    "country": "India",
    "iso2": "IN",
    "iso3": "IND",
    "latitude": 23.6833,
    "longitude": 86.9667,
    "coordinates": "N 23 40 59, E 86 58 0",
    "population": 563917
  },
  {
    "name": "Asela",
    "country": "Ethiopia",
    "iso2": "ET",
    "iso3": "ETH",
    "latitude": 7.95,
    "longitude": 39.1167,
    "coordinates": "N 7 57 0, E 39 7 0",
    "population": 110088
  },
  {
    "name": "Ash Shatrah",
    "country": "Iraq",
    "iso2": "IQ",
    "iso3": "IRQ",
    "latitude": 31.4175,
    "longitude": 46.1772,
    "coordinates": "N 31 25 3, E 46 10 37",
    "population": 161949
  },
  {
    "name": "Ash Shaykh `Uthman",
    "country": "Yemen",
    "iso2": "YE",
    "iso3": "YEM",
    "latitude": 12.8866,
    "longitude": 45.0279,
    "coordinates": "N 12 53 11, E 45 1 40",
    "population": 105248
  },
  {
    "name": "Ashdod",
    "country": "Israel",
    "iso2": "IL",
    "iso3": "ISR",
    "latitude": 31.7978,
    "longitude": 34.6503,
    "coordinates": "N 31 47 52, E 34 39 1",
    "population": 220174
  },
  {
    "name": "Asheville",
    "country": "United States",
    "iso2": "US",
    "iso3": "USA",
    "latitude": 35.5704,
    "longitude": -82.5536,
    "coordinates": "N 35 34 13, W 82 33 12",
    "population": 312507
  },
  {
    "name": "Ashikaga",
    "country": "Japan",
    "iso2": "JP",
    "iso3": "JPN",
    "latitude": 36.3403,
    "longitude": 139.4497,
    "coordinates": "N 36 20 25, E 139 26 58",
    "population": 142882
  },
  {
    "name": "Ashqelon",
    "country": "Israel",
    "iso2": "IL",
    "iso3": "ISR",
    "latitude": 31.6658,
    "longitude": 34.5664,
    "coordinates": "N 31 39 56, E 34 33 59",
    "population": 134454
  },
  {
    "name": "Asmara",
    "country": "Eritrea",
    "iso2": "ER",
    "iso3": "ERI",
    "latitude": 15.3333,
    "longitude": 38.9167,
    "coordinates": "N 15 19 59, E 38 55 0",
    "population": 963000
  },
  {
    "name": "Assis",
    "country": "Brazil",
    "iso2": "BR",
    "iso3": "BRA",
    "latitude": -22.6619,
    "longitude": -50.4119,
    "coordinates": "S 22 39 42, W 50 24 42",
    "population": 101597
  },
  {
    "name": "Astrakhan",
    "country": "Russia",
    "iso2": "RU",
    "iso3": "RUS",
    "latitude": 46.3333,
    "longitude": 48.0167,
    "coordinates": "N 46 19 59, E 48 1 0",
    "population": 532504
  },
  {
    "name": "Asuncion",
    "country": "Paraguay",
    "iso2": "PY",
    "iso3": "PRY",
    "latitude": -25.3,
    "longitude": -57.6333,
    "coordinates": "S 25 18 0, W 57 37 59",
    "population": 524190
  },
  {
    "name": "Aswan",
    "country": "Egypt",
    "iso2": "EG",
    "iso3": "EGY",
    "latitude": 24.0889,
    "longitude": 32.8997,
    "coordinates": "N 24 5 20, E 32 53 58",
    "population": 267913
  },
  {
    "name": "Asyut",
    "country": "Egypt",
    "iso2": "EG",
    "iso3": "EGY",
    "latitude": 27.1869,
    "longitude": 31.1714,
    "coordinates": "N 27 11 12, E 31 10 17",
    "population": 389307
  },
  {
    "name": "At Ta if",
    "country": "Saudi Arabia",
    "iso2": "SA",
    "iso3": "SAU",
    "latitude": 21.2667,
    "longitude": 40.4167,
    "coordinates": "N 21 16 0, E 40 25 0",
    "population": 579970
  },
  {
    "name": "Atbara",
    "country": "Sudan",
    "iso2": "SD",
    "iso3": "SDN",
    "latitude": 17.7167,
    "longitude": 33.9833,
    "coordinates": "N 17 43 0, E 33 58 59",
    "population": 139768
  },
  {
    "name": "Athens",
    "country": "Greece",
    "iso2": "GR",
    "iso3": "GRC",
    "latitude": 37.9842,
    "longitude": 23.7281,
    "coordinates": "N 37 59 3, E 23 43 41",
    "population": 664046
  },
  {
    "name": "Athens",
    "country": "United States",
    "iso2": "US",
    "iso3": "USA",
    "latitude": 33.9508,
    "longitude": -83.3689,
    "coordinates": "N 33 57 2, W 83 22 8",
    "population": 141532
  },
  {
    "name": "Atibaia",
    "country": "Brazil",
    "iso2": "BR",
    "iso3": "BRA",
    "latitude": -23.1172,
    "longitude": -46.5506,
    "coordinates": "S 23 7 1, W 46 33 2",
    "population": 137187
  },
  {
    "name": "Atlanta",
    "country": "United States",
    "iso2": "US",
    "iso3": "USA",
    "latitude": 33.7627,
    "longitude": -84.4224,
    "coordinates": "N 33 45 45, W 84 25 20",
    "population": 5449398
  },
  {
    "name": "Atlantic City",
    "country": "United States",
    "iso2": "US",
    "iso3": "USA",
    "latitude": 39.3797,
    "longitude": -74.4527,
    "coordinates": "N 39 22 46, W 74 27 9",
    "population": 237054
  },
  {
    "name": "Atsugicho",
    "country": "Japan",
    "iso2": "JP",
    "iso3": "JPN",
    "latitude": 35.4333,
    "longitude": 139.3667,
    "coordinates": "N 35 25 59, E 139 22 0",
    "population": 223815
  },
  {
    "name": "Atushi",
    "country": "China",
    "iso2": "CN",
    "iso3": "CHN",
    "latitude": 39.7114,
    "longitude": 76.1753,
    "coordinates": "N 39 42 41, E 76 10 31",
    "population": 240368
  },
  {
    "name": "Atyrau",
    "country": "Kazakhstan",
    "iso2": "KZ",
    "iso3": "KAZ",
    "latitude": 47.1167,
    "longitude": 51.8833,
    "coordinates": "N 47 7 0, E 51 52 59",
    "population": 290700
  },
  {
    "name": "Auckland",
    "country": "New Zealand",
    "iso2": "NZ",
    "iso3": "NZL",
    "latitude": -36.85,
    "longitude": 174.7833,
    "coordinates": "S 36 51 0, E 174 46 59",
    "population": 1346091
  },
  {
    "name": "Augsburg",
    "country": "Germany",
    "iso2": "DE",
    "iso3": "DEU",
    "latitude": 48.3717,
    "longitude": 10.8983,
    "coordinates": "N 48 22 18, E 10 53 53",
    "population": 295830
  },
  {
    "name": "Augusta",
    "country": "United States",
    "iso2": "US",
    "iso3": "USA",
    "latitude": 33.3645,
    "longitude": -82.0708,
    "coordinates": "N 33 21 52, W 82 4 14",
    "population": 390809
  },
  {
    "name": "Aurangabad",
    "country": "India",
    "iso2": "IN",
    "iso3": "IND",
    "latitude": 19.88,
    "longitude": 75.32,
    "coordinates": "N 19 52 48, E 75 19 12",
    "population": 1371330
  },
  {
    "name": "Aurora",
    "country": "United States",
    "iso2": "US",
    "iso3": "USA",
    "latitude": 39.7087,
    "longitude": -104.7273,
    "coordinates": "N 39 42 31, W 104 43 38",
    "population": 379289
  },
  {
    "name": "Aurora",
    "country": "United States",
    "iso2": "US",
    "iso3": "USA",
    "latitude": 41.7637,
    "longitude": -88.2901,
    "coordinates": "N 41 45 49, W 88 17 24",
    "population": 197757
  },
  {
    "name": "Austin",
    "country": "United States",
    "iso2": "US",
    "iso3": "USA",
    "latitude": 30.3004,
    "longitude": -97.7522,
    "coordinates": "N 30 18 1, W 97 45 7",
    "population": 1687311
  },
  {
    "name": "Avcilar",
    "country": "Turkey",
    "iso2": "TR",
    "iso3": "TUR",
    "latitude": 40.9792,
    "longitude": 28.7214,
    "coordinates": "N 40 58 45, E 28 43 17",
    "population": 233749
  },
  {
    "name": "Avondale",
    "country": "United States",
    "iso2": "US",
    "iso3": "USA",
    "latitude": 33.3858,
    "longitude": -112.3236,
    "coordinates": "N 33 23 8, W 112 19 24",
    "population": 227289
  },
  {
    "name": "Awasa",
    "country": "Ethiopia",
    "iso2": "ET",
    "iso3": "ETH",
    "latitude": 7.05,
    "longitude": 38.4667,
    "coordinates": "N 7 3 0, E 38 28 0",
    "population": 300100
  },
  {
    "name": "Awka",
    "country": "Nigeria",
    "iso2": "NG",
    "iso3": "NGA",
    "latitude": 6.2,
    "longitude": 7.0667,
    "coordinates": "N 6 12 0, E 7 4 0",
    "population": 301657
  },
  {
    "name": "Ayacucho",
    "country": "Peru",
    "iso2": "PE",
    "iso3": "PER",
    "latitude": -13.1631,
    "longitude": -74.2244,
    "coordinates": "S 13 9 47, W 74 13 27",
    "population": 180766
  },
  {
    "name": "Aydin",
    "country": "Turkey",
    "iso2": "TR",
    "iso3": "TUR",
    "latitude": 37.8481,
    "longitude": 27.8453,
    "coordinates": "N 37 50 53, E 27 50 43",
    "population": 191037
  },
  {
    "name": "Az Zaqaziq",
    "country": "Egypt",
    "iso2": "EG",
    "iso3": "EGY",
    "latitude": 30.5833,
    "longitude": 31.5167,
    "coordinates": "N 30 34 59, E 31 31 0",
    "population": 285097
  },
  {
    "name": "Az Zarqa'",
    "country": "Jordan",
    "iso2": "JO",
    "iso3": "JOR",
    "latitude": 32.0833,
    "longitude": 36.1,
    "coordinates": "N 32 4 59, E 36 6 0",
    "population": 481300
  },
  {
    "name": "Az Zawiyah",
    "country": "Libya",
    "iso2": "LY",
    "iso3": "LBY",
    "latitude": 32.7604,
    "longitude": 12.72,
    "coordinates": "N 32 45 37, E 12 43 12",
    "population": 200000
  },
  {
    "name": "Az Zubayr",
    "country": "Iraq",
    "iso2": "IQ",
    "iso3": "IRQ",
    "latitude": 30.3892,
    "longitude": 47.7081,
    "coordinates": "N 30 23 21, E 47 42 29",
    "population": 370000
  },
  {
    "name": "Azare",
    "country": "Nigeria",
    "iso2": "NG",
    "iso3": "NGA",
    "latitude": 11.6804,
    "longitude": 10.19,
    "coordinates": "N 11 40 49, E 10 11 24",
    "population": 105687
  },
  {
    "name": "Ba`qubah",
    "country": "Iraq",
    "iso2": "IQ",
    "iso3": "IRQ",
    "latitude": 33.7447,
    "longitude": 44.6436,
    "coordinates": "N 33 44 40, E 44 38 36",
    "population": 467900
  },
  {
    "name": "Babol",
    "country": "Iran",
    "iso2": "IR",
    "iso3": "IRN",
    "latitude": 36.55,
    "longitude": 52.6833,
    "coordinates": "N 36 33 0, E 52 40 59",
    "population": 250217
  },
  {
    "name": "Babruysk",
    "country": "Belarus",
    "iso2": "BY",
    "iso3": "BLR",
    "latitude": 53.15,
    "longitude": 29.2333,
    "coordinates": "N 53 9 0, E 29 13 59",
    "population": 212200
  },
  {
    "name": "Babylon",
    "country": "United States",
    "iso2": "US",
    "iso3": "USA",
    "latitude": 40.6924,
    "longitude": -73.3585,
    "coordinates": "N 40 41 32, W 73 21 30",
    "population": 211207
  },
  {
    "name": "Bac Lieu",
    "country": "Vietnam",
    "iso2": "VN",
    "iso3": "VNM",
    "latitude": 9.2833,
    "longitude": 105.7167,
    "coordinates": "N 9 16 59, E 105 43 0",
    "population": 225000
  },
  {
    "name": "Bac Ninh",
    "country": "Vietnam",
    "iso2": "VN",
    "iso3": "VNM",
    "latitude": 21.1861,
    "longitude": 106.0763,
    "coordinates": "N 21 11 9, E 106 4 34",
    "population": 520000
  },
  {
    "name": "Bacabal",
    "country": "Brazil",
    "iso2": "BR",
    "iso3": "BRA",
    "latitude": -4.225,
    "longitude": -44.78,
    "coordinates": "S 4 13 29, W 44 46 48",
    "population": 100014
  },
  {
    "name": "Bacau",
    "country": "Romania",
    "iso2": "RO",
    "iso3": "ROU",
    "latitude": 46.5833,
    "longitude": 26.9167,
    "coordinates": "N 46 34 59, E 26 55 0",
    "population": 144307
  },
  {
    "name": "Bacolod",
    "country": "Philippines",
    "iso2": "PH",
    "iso3": "PHL",
    "latitude": 10.6765,
    "longitude": 122.9509,
    "coordinates": "N 10 40 35, E 122 57 3",
    "population": 600783
  },
  {
    "name": "Bacoor",
    "country": "Philippines",
    "iso2": "PH",
    "iso3": "PHL",
    "latitude": 14.4624,
    "longitude": 120.9645,
    "coordinates": "N 14 27 44, E 120 57 52",
    "population": 664625
  },
  {
    "name": "Badajoz",
    "country": "Spain",
    "iso2": "ES",
    "iso3": "ESP",
    "latitude": 38.8803,
    "longitude": -6.9753,
    "coordinates": "N 38 52 49, W 6 58 31",
    "population": 150610
  },
  {
    "name": "Badalona",
    "country": "Spain",
    "iso2": "ES",
    "iso3": "ESP",
    "latitude": 41.4333,
    "longitude": 2.2333,
    "coordinates": "N 41 25 59, E 2 13 59",
    "population": 223006
  },
  {
    "name": "Bade",
    "country": "Taiwan",
    "iso2": "TW",
    "iso3": "TWN",
    "latitude": 24.9575,
    "longitude": 121.2989,
    "coordinates": "N 24 57 27, E 121 17 56",
    "population": 172065
  },
  {
    "name": "Bafoussam",
    "country": "Cameroon",
    "iso2": "CM",
    "iso3": "CMR",
    "latitude": 5.4667,
    "longitude": 10.4167,
    "coordinates": "N 5 28 0, E 10 25 0",
    "population": 290768
  },
  {
    "name": "Bagam",
    "country": "Indonesia",
    "iso2": "ID",
    "iso3": "IDN",
    "latitude": 1.0678,
    "longitude": 104.0167,
    "coordinates": "N 1 4 4, E 104 1 0",
    "population": 1029808
  },
  {
    "name": "Bagcilar",
    "country": "Turkey",
    "iso2": "TR",
    "iso3": "TUR",
    "latitude": 41.0406,
    "longitude": 28.8261,
    "coordinates": "N 41 2 26, E 28 49 33",
    "population": 556519
  },
  {
    "name": "Bage",
    "country": "Brazil",
    "iso2": "BR",
    "iso3": "BRA",
    "latitude": -31.3308,
    "longitude": -54.1069,
    "coordinates": "S 31 19 50, W 54 6 24",
    "population": 116794
  },
  {
    "name": "Baghdad",
    "country": "Iraq",
    "iso2": "IQ",
    "iso3": "IRQ",
    "latitude": 33.35,
    "longitude": 44.4167,
    "coordinates": "N 33 21 0, E 44 25 0",
    "population": 6107000
  },
  {
    "name": "Bago",
    "country": "Myanmar",
    "iso2": "MM",
    "iso3": "MMR",
    "latitude": 17.3433,
    "longitude": 96.4981,
    "coordinates": "N 17 20 35, E 96 29 53",
    "population": 284179
  },
  {
    "name": "Bago",
    "country": "Philippines",
    "iso2": "PH",
    "iso3": "PHL",
    "latitude": 10.5388,
    "longitude": 122.8384,
    "coordinates": "N 10 32 19, E 122 50 18",
    "population": 191210
  },
  {
    "name": "Baguio City",
    "country": "Philippines",
    "iso2": "PH",
    "iso3": "PHL",
    "latitude": 16.4152,
    "longitude": 120.5956,
    "coordinates": "N 16 24 54, E 120 35 44",
    "population": 366358
  },
  {
    "name": "Bahar",
    "country": "Iran",
    "iso2": "IR",
    "iso3": "IRN",
    "latitude": 34.9069,
    "longitude": 48.4414,
    "coordinates": "N 34 54 24, E 48 26 29",
    "population": 673405
  },
  {
    "name": "Baharampur",
    "country": "India",
    "iso2": "IN",
    "iso3": "IND",
    "latitude": 24.1,
    "longitude": 88.25,
    "coordinates": "N 24 6 0, E 88 15 0",
    "population": 195223
  },
  {
    "name": "Bahawalnagar",
    "country": "Pakistan",
    "iso2": "PK",
    "iso3": "PAK",
    "latitude": 29.9944,
    "longitude": 73.2536,
    "coordinates": "N 29 59 39, E 73 15 12",
    "population": 141935
  },
  {
    "name": "Bahawalpur",
    "country": "Pakistan",
    "iso2": "PK",
    "iso3": "PAK",
    "latitude": 29.3956,
    "longitude": 71.6722,
    "coordinates": "N 29 23 44, E 71 40 19",
    "population": 762111
  },
  {
    "name": "Bahia Blanca",
    "country": "Argentina",
    "iso2": "AR",
    "iso3": "ARG",
    "latitude": -38.7167,
    "longitude": -62.2667,
    "coordinates": "S 38 43 0, W 62 16 0",
    "population": 299101
  },
  {
    "name": "Bahir Dar",
    "country": "Ethiopia",
    "iso2": "ET",
    "iso3": "ETH",
    "latitude": 11.585,
    "longitude": 37.39,
    "coordinates": "N 11 35 6, E 37 23 24",
    "population": 243300
  },
  {
    "name": "Bahraigh",
    "country": "India",
    "iso2": "IN",
    "iso3": "IND",
    "latitude": 27.5742,
    "longitude": 81.5958,
    "coordinates": "N 27 34 27, E 81 35 44",
    "population": 182218
  },
  {
    "name": "Baia Farta",
    "country": "Angola",
    "iso2": "AO",
    "iso3": "AGO",
    "latitude": -12.6128,
    "longitude": 13.1987,
    "coordinates": "S 12 36 46, E 13 11 55",
    "population": 107841
  },
  {
    "name": "Baia Mare",
    "country": "Romania",
    "iso2": "RO",
    "iso3": "ROU",
    "latitude": 47.6597,
    "longitude": 23.5819,
    "coordinates": "N 47 39 34, E 23 34 54",
    "population": 123738
  },
  {
    "name": "Baicheng",
    "country": "China",
    "iso2": "CN",
    "iso3": "CHN",
    "latitude": 23.901,
    "longitude": 106.6194,
    "coordinates": "N 23 54 3, E 106 37 9",
    "population": 3669400
  },
  {
    "name": "Baicheng",
    "country": "China",
    "iso2": "CN",
    "iso3": "CHN",
    "latitude": 45.6148,
    "longitude": 122.832,
    "coordinates": "N 45 36 53, E 122 49 55",
    "population": 2032356
  },
  {
    "name": "Baidoa",
    "country": "Somalia",
    "iso2": "SO",
    "iso3": "SOM",
    "latitude": 3.1167,
    "longitude": 43.65,
    "coordinates": "N 3 7 0, E 43 39 0",
    "population": 129839
  },
  {
    "name": "Baidyabati",
    "country": "India",
    "iso2": "IN",
    "iso3": "IND",
    "latitude": 22.79,
    "longitude": 88.32,
    "coordinates": "N 22 47 24, E 88 19 12",
    "population": 121110
  },
  {
    "name": "Baigou",
    "country": "China",
    "iso2": "CN",
    "iso3": "CHN",
    "latitude": 39.1098,
    "longitude": 116.0139,
    "coordinates": "N 39 6 35, E 116 0 50",
    "population": 124274
  },
  {
    "name": "Baisha",
    "country": "China",
    "iso2": "CN",
    "iso3": "CHN",
    "latitude": 29.4774,
    "longitude": 119.2853,
    "coordinates": "N 29 28 38, E 119 17 7",
    "population": 120300
  },
  {
    "name": "Baishan",
    "country": "China",
    "iso2": "CN",
    "iso3": "CHN",
    "latitude": 41.9377,
    "longitude": 126.4179,
    "coordinates": "N 41 56 15, E 126 25 4",
    "population": 1296127
  },
  {
    "name": "Baiyin",
    "country": "China",
    "iso2": "CN",
    "iso3": "CHN",
    "latitude": 36.5448,
    "longitude": 104.1766,
    "coordinates": "N 36 32 41, E 104 10 35",
    "population": 1708751
  },
  {
    "name": "Bajos de Haina",
    "country": "Dominican Republic",
    "iso2": "DO",
    "iso3": "DOM",
    "latitude": 18.42,
    "longitude": -70.03,
    "coordinates": "N 18 25 12, W 70 1 48",
    "population": 124193
  },
  {
    "name": "Bakersfield",
    "country": "United States",
    "iso2": "US",
    "iso3": "USA",
    "latitude": 35.3529,
    "longitude": -119.0359,
    "coordinates": "N 35 21 10, W 119 2 9",
    "population": 579295
  },
  {
    "name": "Baku",
    "country": "Azerbaijan",
    "iso2": "AZ",
    "iso3": "AZE",
    "latitude": 40.3667,
    "longitude": 49.8352,
    "coordinates": "N 40 22 0, E 49 50 6",
    "population": 2181800
  },
  {
    "name": "Balakovo",
    "country": "Russia",
    "iso2": "RU",
    "iso3": "RUS",
    "latitude": 52.039,
    "longitude": 47.7839,
    "coordinates": "N 52 2 20, E 47 47 2",
    "population": 191260
  },
  {
    "name": "Balanga",
    "country": "Philippines",
    "iso2": "PH",
    "iso3": "PHL",
    "latitude": 14.6833,
    "longitude": 120.5333,
    "coordinates": "N 14 40 59, E 120 31 59",
    "population": 104173
  },
  {
    "name": "Balashikha",
    "country": "Russia",
    "iso2": "RU",
    "iso3": "RUS",
    "latitude": 55.8,
    "longitude": 37.95,
    "coordinates": "N 55 48 0, E 37 57 0",
    "population": 450771
  },
  {
    "name": "Bali",
    "country": "India",
    "iso2": "IN",
    "iso3": "IND",
    "latitude": 22.65,
    "longitude": 88.34,
    "coordinates": "N 22 39 0, E 88 20 24",
    "population": 293373
  },
  {
    "name": "Balikpapan",
    "country": "Indonesia",
    "iso2": "ID",
    "iso3": "IDN",
    "latitude": -1.1489,
    "longitude": 116.9031,
    "coordinates": "S 1 8 56, E 116 54 11",
    "population": 598043
  },
  {
    "name": "Baliuag",
    "country": "Philippines",
    "iso2": "PH",
    "iso3": "PHL",
    "latitude": 14.95,
    "longitude": 120.9,
    "coordinates": "N 14 57 0, E 120 54 0",
    "population": 168470
  },
  {
    "name": "Balneario de Camboriu",
    "country": "Brazil",
    "iso2": "BR",
    "iso3": "BRA",
    "latitude": -26.9908,
    "longitude": -48.635,
    "coordinates": "S 26 59 26, W 48 38 6",
    "population": 124557
  },
  {
    "name": "Balombo",
    "country": "Angola",
    "iso2": "AO",
    "iso3": "AGO",
    "latitude": -12.35,
    "longitude": 14.7667,
    "coordinates": "S 12 21 0, E 14 46 0",
    "population": 108965
  },
  {
    "name": "Balsas",
    "country": "Brazil",
    "iso2": "BR",
    "iso3": "BRA",
    "latitude": -7.5328,
    "longitude": -46.0358,
    "coordinates": "S 7 31 58, W 46 2 8",
    "population": 101456
  },
  {
    "name": "Balti",
    "country": "Moldova",
    "iso2": "MD",
    "iso3": "MDA",
    "latitude": 47.7617,
    "longitude": 27.9289,
    "coordinates": "N 47 45 42, E 27 55 44",
    "population": 102457
  },
  {
    "name": "Baltimore",
    "country": "United States",
    "iso2": "US",
    "iso3": "USA",
    "latitude": 39.3051,
    "longitude": -76.6144,
    "coordinates": "N 39 18 18, W 76 36 51",
    "population": 2106068
  },
  {
    "name": "Balurghat",
    "country": "India",
    "iso2": "IN",
    "iso3": "IND",
    "latitude": 25.2167,
    "longitude": 88.7667,
    "coordinates": "N 25 13 0, E 88 46 0",
    "population": 153279
  },
  {
    "name": "Bam",
    "country": "Iran",
    "iso2": "IR",
    "iso3": "IRN",
    "latitude": 29.1083,
    "longitude": 58.3583,
    "coordinates": "N 29 6 29, E 58 21 29",
    "population": 127396
  },
  {
    "name": "Bama",
    "country": "Nigeria",
    "iso2": "NG",
    "iso3": "NGA",
    "latitude": 11.5204,
    "longitude": 13.69,
    "coordinates": "N 11 31 13, E 13 41 24",
    "population": 118121
  },
  {
    "name": "Bamako",
    "country": "Mali",
    "iso2": "ML",
    "iso3": "MLI",
    "latitude": 12.6458,
    "longitude": -7.9922,
    "coordinates": "N 12 38 44, W 7 59 31",
    "population": 2009109
  },
  {
    "name": "Bamenda",
    "country": "Cameroon",
    "iso2": "CM",
    "iso3": "CMR",
    "latitude": 5.9333,
    "longitude": 10.1667,
    "coordinates": "N 5 55 59, E 10 10 0",
    "population": 269530
  },
  {
    "name": "Bamiantong",
    "country": "China",
    "iso2": "CN",
    "iso3": "CHN",
    "latitude": 44.9164,
    "longitude": 130.5212,
    "coordinates": "N 44 54 59, E 130 31 16",
    "population": 330000
  },
  {
    "name": "Ban Bang Pu Mai",
    "country": "Thailand",
    "iso2": "TH",
    "iso3": "THA",
    "latitude": 13.5441,
    "longitude": 100.6175,
    "coordinates": "N 13 32 38, E 100 37 3",
    "population": 120058
  },
  {
    "name": "Ban Mangkon",
    "country": "Thailand",
    "iso2": "TH",
    "iso3": "THA",
    "latitude": 13.6138,
    "longitude": 100.6104,
    "coordinates": "N 13 36 49, E 100 36 37",
    "population": 102291
  },
  {
    "name": "Banda Aceh",
    "country": "Indonesia",
    "iso2": "ID",
    "iso3": "IDN",
    "latitude": 5.55,
    "longitude": 95.3175,
    "coordinates": "N 5 33 0, E 95 19 3",
    "population": 235305
  },
  {
    "name": "Bandar Lampung",
    "country": "Indonesia",
    "iso2": "ID",
    "iso3": "IDN",
    "latitude": -5.4294,
    "longitude": 105.2625,
    "coordinates": "S 5 25 45, E 105 15 45",
    "population": 1166761
  },
  {
    "name": "Bandar `Abbas",
    "country": "Iran",
    "iso2": "IR",
    "iso3": "IRN",
    "latitude": 27.2,
    "longitude": 56.25,
    "coordinates": "N 27 12 0, E 56 15 0",
    "population": 526648
  },
  {
    "name": "Bandar-e Anzali",
    "country": "Iran",
    "iso2": "IR",
    "iso3": "IRN",
    "latitude": 37.4667,
    "longitude": 49.4667,
    "coordinates": "N 37 28 0, E 49 28 0",
    "population": 110643
  },
  {
    "name": "Bandar-e Bushehr",
    "country": "Iran",
    "iso2": "IR",
    "iso3": "IRN",
    "latitude": 28.9667,
    "longitude": 50.8333,
    "coordinates": "N 28 58 0, E 50 49 59",
    "population": 195222
  },
  {
    "name": "Bandar-e Mahshahr",
    "country": "Iran",
    "iso2": "IR",
    "iso3": "IRN",
    "latitude": 30.5589,
    "longitude": 49.1981,
    "coordinates": "N 30 33 32, E 49 11 53",
    "population": 162797
  },
  {
    "name": "Bandundu",
    "country": "Congo (Kinshasa)",
    "iso2": "CD",
    "iso3": "COD",
    "latitude": -3.31,
    "longitude": 17.38,
    "coordinates": "S 3 18 36, E 17 22 48",
    "population": 118211
  },
  {
    "name": "Bandung",
    "country": "Indonesia",
    "iso2": "ID",
    "iso3": "IDN",
    "latitude": -6.95,
    "longitude": 107.5667,
    "coordinates": "S 6 57 0, E 107 34 0",
    "population": 2875673
  },
  {
    "name": "Baneh",
    "country": "Iran",
    "iso2": "IR",
    "iso3": "IRN",
    "latitude": 35.9975,
    "longitude": 45.8853,
    "coordinates": "N 35 59 51, E 45 53 7",
    "population": 110218
  },
  {
    "name": "Banfield",
    "country": "Argentina",
    "iso2": "AR",
    "iso3": "ARG",
    "latitude": -34.75,
    "longitude": -58.3833,
    "coordinates": "S 34 45 0, W 58 22 59",
    "population": 223898
  },
  {
    "name": "Banfora",
    "country": "Burkina Faso",
    "iso2": "BF",
    "iso3": "BFA",
    "latitude": 10.6308,
    "longitude": -4.7589,
    "coordinates": "N 10 37 50, W 4 45 32",
    "population": 117200
  },
  {
    "name": "Bangalore",
    "country": "India",
    "iso2": "IN",
    "iso3": "IND",
    "latitude": 12.9791,
    "longitude": 77.5913,
    "coordinates": "N 12 58 44, E 77 35 28",
    "population": 13999000
  },
  {
    "name": "Bangaon",
    "country": "India",
    "iso2": "IN",
    "iso3": "IND",
    "latitude": 23.07,
    "longitude": 88.82,
    "coordinates": "N 23 4 12, E 88 49 12",
    "population": 108864
  },
  {
    "name": "Bangkok",
    "country": "Thailand",
    "iso2": "TH",
    "iso3": "THA",
    "latitude": 13.75,
    "longitude": 100.5167,
    "coordinates": "N 13 45 0, E 100 31 0",
    "population": 17573000
  },
  {
    "name": "Bangui",
    "country": "Central African Republic",
    "iso2": "CF",
    "iso3": "CAF",
    "latitude": 4.3732,
    "longitude": 18.5628,
    "coordinates": "N 4 22 23, E 18 33 46",
    "population": 889231
  },
  {
    "name": "Banha",
    "country": "Egypt",
    "iso2": "EG",
    "iso3": "EGY",
    "latitude": 30.4628,
    "longitude": 31.1797,
    "coordinates": "N 30 27 46, E 31 10 46",
    "population": 157701
  },
  {
    "name": "Bani",
    "country": "Dominican Republic",
    "iso2": "DO",
    "iso3": "DOM",
    "latitude": 18.29,
    "longitude": -70.33,
    "coordinates": "N 18 17 24, W 70 19 48",
    "population": 145595
  },
  {
    "name": "Bani Suwayf",
    "country": "Egypt",
    "iso2": "EG",
    "iso3": "EGY",
    "latitude": 29.0667,
    "longitude": 31.0833,
    "coordinates": "N 29 4 0, E 31 4 59",
    "population": 193048
  },
  {
    "name": "Banja Luka",
    "country": "Bosnia And Herzegovina",
    "iso2": "BA",
    "iso3": "BIH",
    "latitude": 44.7667,
    "longitude": 17.1833,
    "coordinates": "N 44 46 0, E 17 10 59",
    "population": 199191
  },
  {
    "name": "Banjar",
    "country": "Indonesia",
    "iso2": "ID",
    "iso3": "IDN",
    "latitude": -7.3667,
    "longitude": 108.5333,
    "coordinates": "S 7 22 0, E 108 31 59",
    "population": 182819
  },
  {
    "name": "Banjarbaru",
    "country": "Indonesia",
    "iso2": "ID",
    "iso3": "IDN",
    "latitude": -3.4425,
    "longitude": 114.8325,
    "coordinates": "S 3 26 33, E 114 49 57",
    "population": 216600
  },
  {
    "name": "Banjarmasin",
    "country": "Indonesia",
    "iso2": "ID",
    "iso3": "IDN",
    "latitude": -3.319,
    "longitude": 114.5921,
    "coordinates": "S 3 19 8, E 114 35 31",
    "population": 692793
  },
  {
    "name": "Bankura",
    "country": "India",
    "iso2": "IN",
    "iso3": "IND",
    "latitude": 23.25,
    "longitude": 87.0667,
    "coordinates": "N 23 15 0, E 87 4 0",
    "population": 137386
  },
  {
    "name": "Bansbaria",
    "country": "India",
    "iso2": "IN",
    "iso3": "IND",
    "latitude": 22.97,
    "longitude": 88.4,
    "coordinates": "N 22 58 12, E 88 24 0",
    "population": 103920
  },
  {
    "name": "Banyuwangi",
    "country": "Indonesia",
    "iso2": "ID",
    "iso3": "IDN",
    "latitude": -8.195,
    "longitude": 114.3696,
    "coordinates": "S 8 11 42, E 114 22 10",
    "population": 172424
  },
  {
    "name": "Baoding",
    "country": "China",
    "iso2": "CN",
    "iso3": "CHN",
    "latitude": 38.8671,
    "longitude": 115.4845,
    "coordinates": "N 38 52 1, E 115 29 4",
    "population": 11860000
  },
  {
    "name": "Baojishi",
    "country": "China",
    "iso2": "CN",
    "iso3": "CHN",
    "latitude": 34.3609,
    "longitude": 107.1751,
    "coordinates": "N 34 21 39, E 107 10 30",
    "population": 3738700
  },
  {
    "name": "Baoshan",
    "country": "China",
    "iso2": "CN",
    "iso3": "CHN",
    "latitude": 25.1211,
    "longitude": 99.169,
    "coordinates": "N 25 7 15, E 99 10 8",
    "population": 2627000
  },
  {
    "name": "Baotou",
    "country": "China",
    "iso2": "CN",
    "iso3": "CHN",
    "latitude": 40.6562,
    "longitude": 109.8345,
    "coordinates": "N 40 39 22, E 109 50 4",
    "population": 2650364
  },
  {
    "name": "Barakpur",
    "country": "India",
    "iso2": "IN",
    "iso3": "IND",
    "latitude": 22.75,
    "longitude": 88.3667,
    "coordinates": "N 22 45 0, E 88 22 0",
    "population": 152783
  },
  {
    "name": "Baramula",
    "country": "India",
    "iso2": "IN",
    "iso3": "IND",
    "latitude": 34.2,
    "longitude": 74.34,
    "coordinates": "N 34 12 0, E 74 20 24",
    "population": 167986
  },
  {
    "name": "Baranavichy",
    "country": "Belarus",
    "iso2": "BY",
    "iso3": "BLR",
    "latitude": 53.1167,
    "longitude": 25.9833,
    "coordinates": "N 53 7 0, E 25 58 59",
    "population": 174183
  },
  {
    "name": "Barasat",
    "country": "India",
    "iso2": "IN",
    "iso3": "IND",
    "latitude": 22.72,
    "longitude": 88.48,
    "coordinates": "N 22 43 12, E 88 28 48",
    "population": 278435
  },
  {
    "name": "Barbacena",
    "country": "Brazil",
    "iso2": "BR",
    "iso3": "BRA",
    "latitude": -21.2258,
    "longitude": -43.7739,
    "coordinates": "S 21 13 32, W 43 46 26",
    "population": 126284
  },
  {
    "name": "Barcarena Nova",
    "country": "Brazil",
    "iso2": "BR",
    "iso3": "BRA",
    "latitude": -1.5058,
    "longitude": -48.6258,
    "coordinates": "S 1 30 20, W 48 37 32",
    "population": 118537
  },
  {
    "name": "Barcelona",
    "country": "Spain",
    "iso2": "ES",
    "iso3": "ESP",
    "latitude": 41.3825,
    "longitude": 2.1769,
    "coordinates": "N 41 22 57, E 2 10 36",
    "population": 4735000
  },
  {
    "name": "Barcelona",
    "country": "Venezuela",
    "iso2": "VE",
    "iso3": "VEN",
    "latitude": 10.1333,
    "longitude": -64.6833,
    "coordinates": "N 10 7 59, W 64 40 59",
    "population": 448016
  },
  {
    "name": "Barcelos",
    "country": "Portugal",
    "iso2": "PT",
    "iso3": "PRT",
    "latitude": 41.5333,
    "longitude": -8.6167,
    "coordinates": "N 41 31 59, W 8 37 0",
    "population": 120391
  },
  {
    "name": "Barddhaman",
    "country": "India",
    "iso2": "IN",
    "iso3": "IND",
    "latitude": 23.25,
    "longitude": 87.85,
    "coordinates": "N 23 15 0, E 87 51 0",
    "population": 314265
  },
  {
    "name": "Bareilly",
    "country": "India",
    "iso2": "IN",
    "iso3": "IND",
    "latitude": 28.364,
    "longitude": 79.415,
    "coordinates": "N 28 21 50, E 79 24 54",
    "population": 1000000
  },
  {
    "name": "Bari",
    "country": "Italy",
    "iso2": "IT",
    "iso3": "ITA",
    "latitude": 41.1253,
    "longitude": 16.8667,
    "coordinates": "N 41 7 31, E 16 52 0",
    "population": 323370
  },
  {
    "name": "Barinas",
    "country": "Venezuela",
    "iso2": "VE",
    "iso3": "VEN",
    "latitude": 8.6226,
    "longitude": -70.2075,
    "coordinates": "N 8 37 21, W 70 12 27",
    "population": 284289
  },
  {
    "name": "Barishal",
    "country": "Bangladesh",
    "iso2": "BD",
    "iso3": "BGD",
    "latitude": 22.7,
    "longitude": 90.3667,
    "coordinates": "N 22 42 0, E 90 22 0",
    "population": 230000
  },
  {
    "name": "Barnaul",
    "country": "Russia",
    "iso2": "RU",
    "iso3": "RUS",
    "latitude": 53.3567,
    "longitude": 83.7872,
    "coordinates": "N 53 21 24, E 83 47 13",
    "population": 633301
  },
  {
    "name": "Barnsley",
    "country": "United Kingdom",
    "iso2": "GB",
    "iso3": "GBR",
    "latitude": 53.5547,
    "longitude": -1.4791,
    "coordinates": "N 53 33 16, W 1 28 44",
    "population": 245199
  },
  {
    "name": "Barnstable",
    "country": "United States",
    "iso2": "US",
    "iso3": "USA",
    "latitude": 41.6722,
    "longitude": -70.3599,
    "coordinates": "N 41 40 19, W 70 21 35",
    "population": 242847
  },
  {
    "name": "Barquisimeto",
    "country": "Venezuela",
    "iso2": "VE",
    "iso3": "VEN",
    "latitude": 10.0678,
    "longitude": -69.3467,
    "coordinates": "N 10 4 4, W 69 20 48",
    "population": 1059092
  },
  {
    "name": "Barra Mansa",
    "country": "Brazil",
    "iso2": "BR",
    "iso3": "BRA",
    "latitude": -22.5439,
    "longitude": -44.1708,
    "coordinates": "S 22 32 38, W 44 10 14",
    "population": 179915
  },
  {
    "name": "Barra do Dande",
    "country": "Angola",
    "iso2": "AO",
    "iso3": "AGO",
    "latitude": -8.4728,
    "longitude": 13.3731,
    "coordinates": "S 8 28 22, E 13 22 23",
    "population": 222528
  },
  {
    "name": "Barranca",
    "country": "Peru",
    "iso2": "PE",
    "iso3": "PER",
    "latitude": -10.7539,
    "longitude": -77.761,
    "coordinates": "S 10 45 14, W 77 45 39",
    "population": 144381
  },
  {
    "name": "Barrancabermeja",
    "country": "Colombia",
    "iso2": "CO",
    "iso3": "COL",
    "latitude": 7.0675,
    "longitude": -73.8472,
    "coordinates": "N 7 4 3, W 73 50 49",
    "population": 210729
  },
  {
    "name": "Barranquilla",
    "country": "Colombia",
    "iso2": "CO",
    "iso3": "COL",
    "latitude": 10.9639,
    "longitude": -74.7964,
    "coordinates": "N 10 57 50, W 74 47 47",
    "population": 1274250
  },
  {
    "name": "Barrechid",
    "country": "Morocco",
    "iso2": "MA",
    "iso3": "MAR",
    "latitude": 33.27,
    "longitude": -7.5872,
    "coordinates": "N 33 16 12, W 7 35 13",
    "population": 136634
  },
  {
    "name": "Barreiras",
    "country": "Brazil",
    "iso2": "BR",
    "iso3": "BRA",
    "latitude": -12.1528,
    "longitude": -44.99,
    "coordinates": "S 12 9 10, W 44 59 24",
    "population": 153918
  },
  {
    "name": "Barretos",
    "country": "Brazil",
    "iso2": "BR",
    "iso3": "BRA",
    "latitude": -20.5569,
    "longitude": -48.5678,
    "coordinates": "S 20 33 24, W 48 34 4",
    "population": 119243
  },
  {
    "name": "Barrie",
    "country": "Canada",
    "iso2": "CA",
    "iso3": "CAN",
    "latitude": 44.3711,
    "longitude": -79.6769,
    "coordinates": "N 44 22 15, W 79 40 36",
    "population": 172657
  },
  {
    "name": "Barueri",
    "country": "Brazil",
    "iso2": "BR",
    "iso3": "BRA",
    "latitude": -23.5111,
    "longitude": -46.8764,
    "coordinates": "S 23 30 39, W 46 52 35",
    "population": 262275
  },
  {
    "name": "Baruta",
    "country": "Venezuela",
    "iso2": "VE",
    "iso3": "VEN",
    "latitude": 10.4335,
    "longitude": -66.8754,
    "coordinates": "N 10 26 0, W 66 52 31",
    "population": 240755
  },
  {
    "name": "Basel",
    "country": "Switzerland",
    "iso2": "CH",
    "iso3": "CHE",
    "latitude": 47.5606,
    "longitude": 7.5906,
    "coordinates": "N 47 33 38, E 7 35 26",
    "population": 177827
  },
  {
    "name": "Basildon",
    "country": "United Kingdom",
    "iso2": "GB",
    "iso3": "GBR",
    "latitude": 51.5761,
    "longitude": 0.4886,
    "coordinates": "N 51 34 33, E 0 29 18",
    "population": 185900
  },
  {
    "name": "Basingstoke",
    "country": "United Kingdom",
    "iso2": "GB",
    "iso3": "GBR",
    "latitude": 51.2667,
    "longitude": -1.0876,
    "coordinates": "N 51 16 0, W 1 5 15",
    "population": 107355
  },
  {
    "name": "Basirhat",
    "country": "India",
    "iso2": "IN",
    "iso3": "IND",
    "latitude": 22.6572,
    "longitude": 88.8942,
    "coordinates": "N 22 39 25, E 88 53 39",
    "population": 125254
  },
  {
    "name": "Basuo",
    "country": "China",
    "iso2": "CN",
    "iso3": "CHN",
    "latitude": 19.102,
    "longitude": 108.6391,
    "coordinates": "N 19 6 7, E 108 38 20",
    "population": 167636
  },
  {
    "name": "Bat Yam",
    "country": "Israel",
    "iso2": "IL",
    "iso3": "ISR",
    "latitude": 32.0231,
    "longitude": 34.7503,
    "coordinates": "N 32 1 23, E 34 45 1",
    "population": 128800
  },
  {
    "name": "Bata",
    "country": "Equatorial Guinea",
    "iso2": "GQ",
    "iso3": "GNQ",
    "latitude": 1.865,
    "longitude": 9.77,
    "coordinates": "N 1 51 54, E 9 46 12",
    "population": 250770
  },
  {
    "name": "Batala",
    "country": "India",
    "iso2": "IN",
    "iso3": "IND",
    "latitude": 31.8186,
    "longitude": 75.2028,
    "coordinates": "N 31 49 6, E 75 12 10",
    "population": 183314
  },
  {
    "name": "Batangas",
    "country": "Philippines",
    "iso2": "PH",
    "iso3": "PHL",
    "latitude": 13.75,
    "longitude": 121.05,
    "coordinates": "N 13 45 0, E 121 3 0",
    "population": 351437
  },
  {
    "name": "Bataysk",
    "country": "Russia",
    "iso2": "RU",
    "iso3": "RUS",
    "latitude": 47.1333,
    "longitude": 39.75,
    "coordinates": "N 47 7 59, E 39 45 0",
    "population": 126769
  },
  {
    "name": "Batna",
    "country": "Algeria",
    "iso2": "DZ",
    "iso3": "DZA",
    "latitude": 35.55,
    "longitude": 6.1667,
    "coordinates": "N 35 33 59, E 6 10 0",
    "population": 290645
  },
  {
    "name": "Baton Rouge",
    "country": "United States",
    "iso2": "US",
    "iso3": "USA",
    "latitude": 30.4418,
    "longitude": -91.131,
    "coordinates": "N 30 26 30, W 91 7 51",
    "population": 570308
  },
  {
    "name": "Battambang",
    "country": "Cambodia",
    "iso2": "KH",
    "iso3": "KHM",
    "latitude": 13.1028,
    "longitude": 103.1983,
    "coordinates": "N 13 6 10, E 103 11 53",
    "population": 130000
  },
  {
    "name": "Batticaloa",
    "country": "Sri Lanka",
    "iso2": "LK",
    "iso3": "LKA",
    "latitude": 7.717,
    "longitude": 81.7,
    "coordinates": "N 7 43 1, E 81 42 0",
    "population": 129222
  },
  {
    "name": "Batu",
    "country": "Indonesia",
    "iso2": "ID",
    "iso3": "IDN",
    "latitude": -7.8672,
    "longitude": 112.5239,
    "coordinates": "S 7 52 1, E 112 31 26",
    "population": 190184
  },
  {
    "name": "Batu Pahat",
    "country": "Malaysia",
    "iso2": "MY",
    "iso3": "MYS",
    "latitude": 1.85,
    "longitude": 102.93,
    "coordinates": "N 1 51 0, E 102 55 48",
    "population": 140000
  },
  {
    "name": "Batumi",
    "country": "Georgia",
    "iso2": "GE",
    "iso3": "GEO",
    "latitude": 41.6458,
    "longitude": 41.6417,
    "coordinates": "N 41 38 44, E 41 38 30",
    "population": 154600
  },
  {
    "name": "Baubau",
    "country": "Indonesia",
    "iso2": "ID",
    "iso3": "IDN",
    "latitude": -5.4667,
    "longitude": 122.633,
    "coordinates": "S 5 28 0, E 122 37 58",
    "population": 152143
  },
  {
    "name": "Bauchi",
    "country": "Nigeria",
    "iso2": "NG",
    "iso3": "NGA",
    "latitude": 10.3158,
    "longitude": 9.8442,
    "coordinates": "N 10 18 56, E 9 50 39",
    "population": 693700
  },
  {
    "name": "Bauru",
    "country": "Brazil",
    "iso2": "BR",
    "iso3": "BRA",
    "latitude": -22.3147,
    "longitude": -49.0606,
    "coordinates": "S 22 18 52, W 49 3 38",
    "population": 366992
  },
  {
    "name": "Bayamo",
    "country": "Cuba",
    "iso2": "CU",
    "iso3": "CUB",
    "latitude": 20.3817,
    "longitude": -76.6428,
    "coordinates": "N 20 22 54, W 76 38 34",
    "population": 235107
  },
  {
    "name": "Bayamon",
    "country": "Puerto Rico",
    "iso2": "PR",
    "iso3": "PRI",
    "latitude": 18.3793,
    "longitude": -66.1635,
    "coordinates": "N 18 22 45, W 66 9 48",
    "population": 161034
  },
  {
    "name": "Bayawan",
    "country": "Philippines",
    "iso2": "PH",
    "iso3": "PHL",
    "latitude": 9.3667,
    "longitude": 122.8,
    "coordinates": "N 9 22 0, E 122 48 0",
    "population": 122747
  },
  {
    "name": "Baybay",
    "country": "Philippines",
    "iso2": "PH",
    "iso3": "PHL",
    "latitude": 10.6833,
    "longitude": 124.8333,
    "coordinates": "N 10 40 59, E 124 49 59",
    "population": 111848
  },
  {
    "name": "Bayugan",
    "country": "Philippines",
    "iso2": "PH",
    "iso3": "PHL",
    "latitude": 8.7143,
    "longitude": 125.7481,
    "coordinates": "N 8 42 51, E 125 44 53",
    "population": 109499
  },
  {
    "name": "Bazhou",
    "country": "China",
    "iso2": "CN",
    "iso3": "CHN",
    "latitude": 31.8576,
    "longitude": 106.7559,
    "coordinates": "N 31 51 27, E 106 45 21",
    "population": 3283148
  },
  {
    "name": "Bazhou",
    "country": "China",
    "iso2": "CN",
    "iso3": "CHN",
    "latitude": 39.1235,
    "longitude": 116.386,
    "coordinates": "N 39 7 24, E 116 23 9",
    "population": 622975
  },
  {
    "name": "Beaumont",
    "country": "United States",
    "iso2": "US",
    "iso3": "USA",
    "latitude": 30.0849,
    "longitude": -94.1451,
    "coordinates": "N 30 5 5, W 94 8 42",
    "population": 146091
  },
  {
    "name": "Beawar",
    "country": "India",
    "iso2": "IN",
    "iso3": "IND",
    "latitude": 26.1011,
    "longitude": 74.3203,
    "coordinates": "N 26 6 3, E 74 19 13",
    "population": 151472
  },
  {
    "name": "Bechar",
    "country": "Algeria",
    "iso2": "DZ",
    "iso3": "DZA",
    "latitude": 31.6333,
    "longitude": -2.2,
    "coordinates": "N 31 37 59, W 2 12 0",
    "population": 165627
  },
  {
    "name": "Beersheba",
    "country": "Israel",
    "iso2": "IL",
    "iso3": "ISR",
    "latitude": 31.2589,
    "longitude": 34.7978,
    "coordinates": "N 31 15 32, E 34 47 52",
    "population": 209000
  },
  {
    "name": "Begusarai",
    "country": "India",
    "iso2": "IN",
    "iso3": "IND",
    "latitude": 25.42,
    "longitude": 86.13,
    "coordinates": "N 25 25 12, E 86 7 48",
    "population": 252008
  },
  {
    "name": "Behbahan",
    "country": "Iran",
    "iso2": "IR",
    "iso3": "IRN",
    "latitude": 30.5958,
    "longitude": 50.2417,
    "coordinates": "N 30 35 44, E 50 14 30",
    "population": 122604
  },
  {
    "name": "Beian",
    "country": "China",
    "iso2": "CN",
    "iso3": "CHN",
    "latitude": 48.2395,
    "longitude": 126.5037,
    "coordinates": "N 48 14 22, E 126 30 13",
    "population": 470000
  },
  {
    "name": "Beichengqu",
    "country": "China",
    "iso2": "CN",
    "iso3": "CHN",
    "latitude": 40.4348,
    "longitude": 113.1565,
    "coordinates": "N 40 26 5, E 113 9 23",
    "population": 245608
  },
  {
    "name": "Beidao",
    "country": "China",
    "iso2": "CN",
    "iso3": "CHN",
    "latitude": 34.602,
    "longitude": 105.918,
    "coordinates": "N 34 36 7, E 105 55 4",
    "population": 1225000
  },
  {
    "name": "Beihai",
    "country": "China",
    "iso2": "CN",
    "iso3": "CHN",
    "latitude": 21.4667,
    "longitude": 109.1,
    "coordinates": "N 21 28 0, E 109 6 0",
    "population": 1680000
  },
  {
    "name": "Beijing",
    "country": "China",
    "iso2": "CN",
    "iso3": "CHN",
    "latitude": 39.904,
    "longitude": 116.4075,
    "coordinates": "N 39 54 14, E 116 24 27",
    "population": 19437000
  },
  {
    "name": "Beining",
    "country": "China",
    "iso2": "CN",
    "iso3": "CHN",
    "latitude": 41.5961,
    "longitude": 121.7928,
    "coordinates": "N 41 35 45, E 121 47 34",
    "population": 514898
  },
  {
    "name": "Beipiao",
    "country": "China",
    "iso2": "CN",
    "iso3": "CHN",
    "latitude": 41.802,
    "longitude": 120.7621,
    "coordinates": "N 41 48 7, E 120 45 43",
    "population": 496164
  },
  {
    "name": "Beira",
    "country": "Mozambique",
    "iso2": "MZ",
    "iso3": "MOZ",
    "latitude": -19.8333,
    "longitude": 34.85,
    "coordinates": "S 19 49 59, E 34 51 0",
    "population": 436240
  },
  {
    "name": "Beirut",
    "country": "Lebanon",
    "iso2": "LB",
    "iso3": "LBN",
    "latitude": 33.8869,
    "longitude": 35.5131,
    "coordinates": "N 33 53 12, E 35 30 47",
    "population": 361366
  },
  {
    "name": "Beja",
    "country": "Tunisia",
    "iso2": "TN",
    "iso3": "TUN",
    "latitude": 36.7256,
    "longitude": 9.1817,
    "coordinates": "N 36 43 32, E 9 10 54",
    "population": 109299
  },
  {
    "name": "Bejaia",
    "country": "Algeria",
    "iso2": "DZ",
    "iso3": "DZA",
    "latitude": 36.7511,
    "longitude": 5.0642,
    "coordinates": "N 36 45 3, E 5 3 51",
    "population": 176139
  },
  {
    "name": "Bekasi",
    "country": "Indonesia",
    "iso2": "ID",
    "iso3": "IDN",
    "latitude": -6.2333,
    "longitude": 107.0,
    "coordinates": "S 6 13 59, E 107 0 0",
    "population": 2381053
  },
  {
    "name": "Belas",
    "country": "Angola",
    "iso2": "AO",
    "iso3": "AGO",
    "latitude": -9.0689,
    "longitude": 13.1608,
    "coordinates": "S 9 4 8, E 13 9 38",
    "population": 500000
  },
  {
    "name": "Belem",
    "country": "Brazil",
    "iso2": "BR",
    "iso3": "BRA",
    "latitude": -1.4558,
    "longitude": -48.5039,
    "coordinates": "S 1 27 20, W 48 30 14",
    "population": 1499641
  },
  {
    "name": "Belfast",
    "country": "United Kingdom",
    "iso2": "GB",
    "iso3": "GBR",
    "latitude": 54.5964,
    "longitude": -5.93,
    "coordinates": "N 54 35 47, W 5 55 48",
    "population": 333871
  },